{"type": "FeatureCollection", "features": [{"type": "Feature", "geometry": {"type": "Point", "coordinates": [-79.145069, 37.413162]}, "properties": {"name": "B.R.R.J. Abingdon", "city": "Lynchburg", "state": "VA", "type": "Other/Unknown", "pop": 0.2}}, {"type": "Feature", "geometry": {"type": "Point", "coordinates": [-106.629298, 35.052654]}, "properties": {"name": "Albuquerque Hold Room", "city": "Albuquerque", "state": "NM", "type": "Hold/Staging", "pop": 3.6}}, {"type": "Feature", "geometry": {"type": "Point", "coordinates": [-91.230469, 31.569175]}, "properties": {"name": "Adams County Det Center", "city": "Natchez", "state": "MS", "type": "Dedicated", "pop": 2173.3}}, {"type": "Feature", "geometry": {"type": "Point", "coordinates": [-117.441865, 34.557729]}, "properties": {"name": "Adelanto ICE Processing Center", "city": "Adelanto", "state": "CA", "type": "Dedicated", "pop": 1712.1}}, {"type": "Feature", "geometry": {"type": "Point", "coordinates": [-119.020654, 35.383374]}, "properties": {"name": "Adventist Health Bakersfield", "city": "Bakersfield", "state": "CA", "type": "Medical", "pop": 0.1}}, {"type": "Feature", "geometry": {"type": "Point", "coordinates": [-67.14213, 18.49428]}, "properties": {"name": "Aguadilla SPC", "city": "Aguadilla", "state": "PR", "type": "Hold/Staging", "pop": 0.9}}, {"type": "Feature", "geometry": {"type": "Point", "coordinates": [-117.90963, 33.820504]}, "properties": {"name": "Anaheim Global Medical Center", "city": "Anaheim", "state": "CA", "type": "Medical", "pop": 1.1}}, {"type": "Feature", "geometry": {"type": "Point", "coordinates": [-97.069144, 47.911344]}, "properties": {"name": "Altru Hospital Grand Forks", "city": "Grand Forks", "state": "ND", "type": "Medical", "pop": 0.3}}, {"type": "Feature", "geometry": {"type": "Point", "coordinates": [-149.580175, 61.303929]}, "properties": {"name": "Highland Mtn Cor Ctr", "city": "Eagle River", "state": "AK", "type": "Federal", "pop": 0.3}}, {"type": "Feature", "geometry": {"type": "Point", "coordinates": [-134.487648, 58.361196]}, "properties": {"name": "Lemon Creek, Juneau,AK", "city": "Juneau", "state": "AK", "type": "Federal", "pop": 0.3}}, {"type": "Feature", "geometry": {"type": "Point", "coordinates": [-79.402463, 36.068555]}, "properties": {"name": "Alamance Co. Det. Facility", "city": "Graham", "state": "NC", "type": "Non-Dedicated", "pop": 34.9}}, {"type": "Feature", "geometry": {"type": "Point", "coordinates": [-73.769379, 42.753381]}, "properties": {"name": "Albany Holdroom", "city": "Latham", "state": "NY", "type": "Hold/Staging", "pop": 0.5}}, {"type": "Feature", "geometry": {"type": "Point", "coordinates": [-77.067312, 38.798612]}, "properties": {"name": "Alexandria City Jail", "city": "Alexandria", "state": "VA", "type": "Federal", "pop": 0.4}}, {"type": "Feature", "geometry": {"type": "Point", "coordinates": [-78.01715, 42.21245]}, "properties": {"name": "Allegany County Jail", "city": "Belmont", "state": "NY", "type": "Non-Dedicated", "pop": 7.8}}, {"type": "Feature", "geometry": {"type": "Point", "coordinates": [-105.859789, 37.487897]}, "properties": {"name": "Alamosa Holdroom", "city": "Alamosa", "state": "CO", "type": "Hold/Staging", "pop": 0.1}}, {"type": "Feature", "geometry": {"type": "Point", "coordinates": [-101.748848, 35.222536]}, "properties": {"name": "Amarillo Hold Room", "city": "Amarillo", "state": "TX", "type": "Hold/Staging", "pop": 1.8}}, {"type": "Feature", "geometry": {"type": "Point", "coordinates": [-149.857649, 61.21838]}, "properties": {"name": "Anchorage Jail", "city": "Anchorage", "state": "AK", "type": "Federal", "pop": 1.5}}, {"type": "Feature", "geometry": {"type": "Point", "coordinates": [-117.044089, 32.774357]}, "properties": {"name": "Alvarado Parkway Institute", "city": "La Mesa", "state": "CA", "type": "Medical", "pop": 0.9}}, {"type": "Feature", "geometry": {"type": "Point", "coordinates": [-92.756652, 30.620368]}, "properties": {"name": "Allen Parish Public Safety Complex", "city": "Oberlin", "state": "LA", "type": "Non-Dedicated", "pop": 137.7}}, {"type": "Feature", "geometry": {"type": "Point", "coordinates": [-117.352826, 34.076434]}, "properties": {"name": "Arrowhead Regional Med Center", "city": "Colton", "state": "CA", "type": "Medical", "pop": 0.9}}, {"type": "Feature", "geometry": {"type": "Point", "coordinates": [-84.393159, 33.753164]}, "properties": {"name": "Atlanta Dist. Hold Rm", "city": "Atlanta", "state": "GA", "type": "Hold/Staging", "pop": 103.3}}, {"type": "Feature", "geometry": {"type": "Point", "coordinates": [-97.738978, 30.269638]}, "properties": {"name": "Austin DRO Hold Room", "city": "Austin", "state": "TX", "type": "Hold/Staging", "pop": 17.4}}, {"type": "Feature", "geometry": {"type": "Point", "coordinates": [-82.12172, 30.29596]}, "properties": {"name": "Baker County Sheriff Dept.", "city": "Macclenny", "state": "FL", "type": "Non-Dedicated", "pop": 299.9}}, {"type": "Feature", "geometry": {"type": "Point", "coordinates": [-87.774769, 30.88454]}, "properties": {"name": "Baldwin County Cor. Center", "city": "Bay Minette", "state": "AL", "type": "Non-Dedicated", "pop": 9.9}}, {"type": "Feature", "geometry": {"type": "Point", "coordinates": [-76.680689, 39.255423]}, "properties": {"name": "Bal D D & P", "city": "Baltimore", "state": "MD", "type": "Hold/Staging", "pop": 46.9}}, {"type": "Feature", "geometry": {"type": "Point", "coordinates": [-92.583366, 30.486577]}, "properties": {"name": "Basile Detention Center", "city": "Basile", "state": "LA", "type": "Dedicated", "pop": 949.3}}, {"type": "Feature", "geometry": {"type": "Point", "coordinates": [-97.463733, 31.057053]}, "properties": {"name": "Bell County Jail", "city": "Belton", "state": "TX", "type": "Non-Dedicated", "pop": 0.7}}, {"type": "Feature", "geometry": {"type": "Point", "coordinates": [-86.79116, 33.479539]}, "properties": {"name": "Birmingham Hold Room", "city": "Homewood", "state": "AL", "type": "Hold/Staging", "pop": 3.8}}, {"type": "Feature", "geometry": {"type": "Point", "coordinates": [-71.104465, 42.339818]}, "properties": {"name": "Beth Israel Deaconess Hosp", "city": "Boston", "state": "MA", "type": "Medical", "pop": 2.3}}, {"type": "Feature", "geometry": {"type": "Point", "coordinates": [-104.849106, 39.76089]}, "properties": {"name": "BI Incororated, GEO Group Company", "city": "Aurora", "state": "CO", "type": "Other/Unknown", "pop": 0.3}}, {"type": "Feature", "geometry": {"type": "Point", "coordinates": [-111.565624, 33.214606]}, "properties": {"name": "Banner Ironwood Med Ctr", "city": "Queen Creek", "state": "AZ", "type": "Medical", "pop": 0.1}}, {"type": "Feature", "geometry": {"type": "Point", "coordinates": [-119.01121, 35.37372]}, "properties": {"name": "Bakerfield Hold", "city": "Bakersfield", "state": "CA", "type": "Hold/Staging", "pop": 10.5}}, {"type": "Feature", "geometry": {"type": "Point", "coordinates": [-99.909668, 32.778038]}, "properties": {"name": "Bluebonnet Det Fclty", "city": "Anson", "state": "TX", "type": "Non-Dedicated", "pop": 1056.1}}, {"type": "Feature", "geometry": {"type": "Point", "coordinates": [-116.286069, 43.592766]}, "properties": {"name": "Boise Hold Room", "city": "Boise", "state": "ID", "type": "Hold/Staging", "pop": 1.3}}, {"type": "Feature", "geometry": {"type": "Point", "coordinates": [-84.723667, 39.037326]}, "properties": {"name": "Boone County Jail", "city": "Burlington", "state": "KY", "type": "Federal", "pop": 194.7}}, {"type": "Feature", "geometry": {"type": "Point", "coordinates": [-84.368033, 33.712316]}, "properties": {"name": "Atlanta U.S. Pen.", "city": "Atlanta", "state": "GA", "type": "Other/Unknown", "pop": 123.0}}, {"type": "Feature", "geometry": {"type": "Point", "coordinates": [-71.137769, 44.520926]}, "properties": {"name": "FCI Berlin", "city": "Berlin", "state": "NH", "type": "Federal", "pop": 200.9}}, {"type": "Feature", "geometry": {"type": "Point", "coordinates": [-74.002958, 40.659787]}, "properties": {"name": "Brooklyn MDC", "city": "Brooklyn", "state": "NY", "type": "Federal", "pop": 102.5}}, {"type": "Feature", "geometry": {"type": "Point", "coordinates": [-86.626766, 36.226218]}, "properties": {"name": "Nashville Comm. Corr.", "city": "Nashville", "state": "TN", "type": "Federal", "pop": 0.1}}, {"type": "Feature", "geometry": {"type": "Point", "coordinates": [-157.928869, 21.3335]}, "properties": {"name": "Honolulu Federal Detention Center", "city": "Honolulu", "state": "HI", "type": "Federal", "pop": 64.5}}, {"type": "Feature", "geometry": {"type": "Point", "coordinates": [-94.936386, 39.330385]}, "properties": {"name": "Leavenworth USP", "city": "Leavenworth", "state": "KS", "type": "Other/Unknown", "pop": 61.1}}, {"type": "Feature", "geometry": {"type": "Point", "coordinates": [-80.193199, 25.778491]}, "properties": {"name": "Miami Fed.Det.Center", "city": "Miami", "state": "FL", "type": "Federal", "pop": 446.1}}, {"type": "Feature", "geometry": {"type": "Point", "coordinates": [-75.151925, 39.952909]}, "properties": {"name": "FDC Philadelphia", "city": "Philadelphia", "state": "PA", "type": "Federal", "pop": 105.9}}, {"type": "Feature", "geometry": {"type": "Point", "coordinates": [-71.208937, 42.482884]}, "properties": {"name": "Boston Holdroom", "city": "Burlington", "state": "MA", "type": "Hold/Staging", "pop": 25.5}}, {"type": "Feature", "geometry": {"type": "Point", "coordinates": [-84.246082, 38.223999]}, "properties": {"name": "Bourbon Co Det Center", "city": "Paris", "state": "KY", "type": "Other/Unknown", "pop": 5.7}}, {"type": "Feature", "geometry": {"type": "Point", "coordinates": [-71.05154, 42.365668]}, "properties": {"name": "Boston SPC", "city": "Boston", "state": "MA", "type": "Other/Unknown", "pop": 0.1}}, {"type": "Feature", "geometry": {"type": "Point", "coordinates": [-80.141167, 26.10273]}, "properties": {"name": "Broward General Medical Center", "city": "Ft. Lauderdale", "state": "FL", "type": "Medical", "pop": 0.1}}, {"type": "Feature", "geometry": {"type": "Point", "coordinates": [-134.465088, 58.329692]}, "properties": {"name": "Bartlett Regional Hospital", "city": "Juneau", "state": "AK", "type": "Medical", "pop": 0.1}}, {"type": "Feature", "geometry": {"type": "Point", "coordinates": [-80.142769, 26.115173]}, "properties": {"name": "Broward County Jail", "city": "Ft.Lauderdale", "state": "FL", "type": "Non-Dedicated", "pop": 4.7}}, {"type": "Feature", "geometry": {"type": "Point", "coordinates": [-98.125847, 27.248275]}, "properties": {"name": "Brooks County Jail (Contract)", "city": "Falfurrias", "state": "TX", "type": "Federal", "pop": 19.0}}, {"type": "Feature", "geometry": {"type": "Point", "coordinates": [-75.913339, 42.130839]}, "properties": {"name": "Broome County Jail", "city": "Binghampton", "state": "NY", "type": "Non-Dedicated", "pop": 42.1}}, {"type": "Feature", "geometry": {"type": "Point", "coordinates": [-87.86562, 41.868522]}, "properties": {"name": "Broadview Service Staging", "city": "Broadview", "state": "IL", "type": "Hold/Staging", "pop": 176.6}}, {"type": "Feature", "geometry": {"type": "Point", "coordinates": [-101.514653, 32.225131]}, "properties": {"name": "Big Spring Hold Room", "city": "Big Spring", "state": "TX", "type": "Hold/Staging", "pop": 1.1}}, {"type": "Feature", "geometry": {"type": "Point", "coordinates": [-78.202694, 43.020404]}, "properties": {"name": "Buffalo SPC", "city": "Batavia", "state": "NY", "type": "Dedicated", "pop": 690.1}}, {"type": "Feature", "geometry": {"type": "Point", "coordinates": [-78.878101, 42.888191]}, "properties": {"name": "Buffalo Hold Room", "city": "Buffalo", "state": "NY", "type": "Hold/Staging", "pop": 1.5}}, {"type": "Feature", "geometry": {"type": "Point", "coordinates": [-100.69387, 46.794465]}, "properties": {"name": "Burleigh Co. Jail, ND", "city": "Bismarck", "state": "ND", "type": "Non-Dedicated", "pop": 14.6}}, {"type": "Feature", "geometry": {"type": "Point", "coordinates": [-84.553183, 39.38975]}, "properties": {"name": "Butler County Jail", "city": "Hamilton", "state": "OH", "type": "Non-Dedicated", "pop": 344.2}}, {"type": "Feature", "geometry": {"type": "Point", "coordinates": [-119.027482, 35.393033]}, "properties": {"name": "Mesa Verde ICE Processing Center", "city": "Bakersfield", "state": "CA", "type": "Dedicated", "pop": 348.1}}, {"type": "Feature", "geometry": {"type": "Point", "coordinates": [-111.836168, 41.735155]}, "properties": {"name": "Cache Co. Jail", "city": "Logan", "state": "UT", "type": "Federal", "pop": 0.9}}, {"type": "Feature", "geometry": {"type": "Point", "coordinates": [-117.861876, 35.15567]}, "properties": {"name": "California City Corections Center", "city": "California City", "state": "CA", "type": "Federal", "pop": 609.4}}, {"type": "Feature", "geometry": {"type": "Point", "coordinates": [-117.437285, 34.558822]}, "properties": {"name": "Desert View", "city": "Adelanto", "state": "CA", "type": "Dedicated", "pop": 440.8}}, {"type": "Feature", "geometry": {"type": "Point", "coordinates": [-85.175892, 42.316674]}, "properties": {"name": "Calhoun Co., Battle Cr,MI", "city": "Battle Creek", "state": "MI", "type": "Non-Dedicated", "pop": 152.6}}, {"type": "Feature", "geometry": {"type": "Point", "coordinates": [-78.701232, 40.484397]}, "properties": {"name": "Cambria County Jail, PA", "city": "Ebensburg", "state": "PA", "type": "Federal", "pop": 1.7}}, {"type": "Feature", "geometry": {"type": "Point", "coordinates": [-105.509858, 44.277316]}, "properties": {"name": "Campbell County Jail", "city": "Gillette", "state": "WY", "type": "Non-Dedicated", "pop": 0.2}}, {"type": "Feature", "geometry": {"type": "Point", "coordinates": [-77.277832, 38.117272]}, "properties": {"name": "Caroline Detention Facility", "city": "Bowling Green", "state": "VA", "type": "Dedicated", "pop": 361.9}}, {"type": "Feature", "geometry": {"type": "Point", "coordinates": [-111.380434, 47.466362]}, "properties": {"name": "Cascade County Jail, MT", "city": "Great Falls", "state": "MT", "type": "Federal", "pop": 0.9}}, {"type": "Feature", "geometry": {"type": "Point", "coordinates": [-95.883345, 41.011084]}, "properties": {"name": "Cass County Jail", "city": "Plattsmouth", "state": "NE", "type": "Federal", "pop": 26.3}}, {"type": "Feature", "geometry": {"type": "Point", "coordinates": [-97.754606, 27.736829]}, "properties": {"name": "Coastal Bend Det. Facility", "city": "Robstown", "state": "TX", "type": "Federal", "pop": 81.3}}, {"type": "Feature", "geometry": {"type": "Point", "coordinates": [-78.849655, 42.875338]}, "properties": {"name": "Buffalo Usbp Hold Room", "city": "Buffalo", "state": "NY", "type": "Federal", "pop": 0.5}}, {"type": "Feature", "geometry": {"type": "Point", "coordinates": [-111.371793, 33.043834]}, "properties": {"name": "CCA, Florence Correctional Center", "city": "Florence", "state": "AZ", "type": "Federal", "pop": 590.4}}, {"type": "Feature", "geometry": {"type": "Point", "coordinates": [-97.419752, 30.564905]}, "properties": {"name": "T Don Hutto Residential Center", "city": "Taylor", "state": "TX", "type": "Dedicated", "pop": 439.4}}, {"type": "Feature", "geometry": {"type": "Point", "coordinates": [-80.626784, 41.128858]}, "properties": {"name": "CCA Northeast OH Corrects", "city": "Youngstown", "state": "OH", "type": "Dedicated", "pop": 242.3}}, {"type": "Feature", "geometry": {"type": "Point", "coordinates": [-116.915478, 32.576525]}, "properties": {"name": "Otay Mesa Detention Center", "city": "San Diego", "state": "CA", "type": "Dedicated", "pop": 1418.9}}, {"type": "Feature", "geometry": {"type": "Point", "coordinates": [-80.008795, 32.858631]}, "properties": {"name": "Charleston County Correct", "city": "North Charleston", "state": "SC", "type": "Federal", "pop": 0.4}}, {"type": "Feature", "geometry": {"type": "Point", "coordinates": [-96.538985, 38.375417]}, "properties": {"name": "Chase County Jail", "city": "Cottonwood Falls", "state": "KS", "type": "Non-Dedicated", "pop": 113.0}}, {"type": "Feature", "geometry": {"type": "Point", "coordinates": [-104.505543, 33.352159]}, "properties": {"name": "Chavez Det Crt", "city": "Roswell", "state": "NM", "type": "Non-Dedicated", "pop": 3.0}}, {"type": "Feature", "geometry": {"type": "Point", "coordinates": [-87.890021, 41.974839]}, "properties": {"name": "Chicago Hold Room", "city": "Chicago", "state": "IL", "type": "Hold/Staging", "pop": 1.8}}, {"type": "Feature", "geometry": {"type": "Point", "coordinates": [-84.34616, 46.49749]}, "properties": {"name": "Chippewa Co., SSM", "city": "Sault Ste. Marie", "state": "MI", "type": "Non-Dedicated", "pop": 36.7}}, {"type": "Feature", "geometry": {"type": "Point", "coordinates": [-80.019771, 32.846752]}, "properties": {"name": "Charleston, SC Hold Room", "city": "Charleston", "state": "SC", "type": "Hold/Staging", "pop": 5.4}}, {"type": "Feature", "geometry": {"type": "Point", "coordinates": [-73.452829, 45.006527]}, "properties": {"name": "Champlain Hold Room", "city": "Champlain", "state": "NY", "type": "Hold/Staging", "pop": 0.3}}, {"type": "Feature", "geometry": {"type": "Point", "coordinates": [-87.490823, 36.869194]}, "properties": {"name": "Christian County Jail", "city": "Hopkinsville", "state": "KY", "type": "Federal", "pop": 36.0}}, {"type": "Feature", "geometry": {"type": "Point", "coordinates": [-82.043435, 26.917117]}, "properties": {"name": "Charlotte County Jail", "city": "Punta Gorda", "state": "FL", "type": "Non-Dedicated", "pop": 0.5}}, {"type": "Feature", "geometry": {"type": "Point", "coordinates": [-76.251591, 36.717768]}, "properties": {"name": "Chesapeake City Jail", "city": "Chesapeake", "state": "VA", "type": "Non-Dedicated", "pop": 0.9}}, {"type": "Feature", "geometry": {"type": "Point", "coordinates": [-96.942042, 32.869878]}, "properties": {"name": "Christus Santa Rosa Hospital - Med", "city": "Irving", "state": "TX", "type": "Medical", "pop": 0.2}}, {"type": "Feature", "geometry": {"type": "Point", "coordinates": [-104.8199, 41.1368]}, "properties": {"name": "Cheyenne Holdroom", "city": "Cheyenne", "state": "WY", "type": "Hold/Staging", "pop": 0.6}}, {"type": "Feature", "geometry": {"type": "Point", "coordinates": [-107.907649, 35.179783]}, "properties": {"name": "Cibola County Correctional Center", "city": "Milan", "state": "NM", "type": "Non-Dedicated", "pop": 238.7}}, {"type": "Feature", "geometry": {"type": "Point", "coordinates": [-107.907649, 35.179783]}, "properties": {"name": "Cibola County Det Ctr", "city": "Milan", "state": "NM", "type": "Non-Dedicated", "pop": 0.3}}, {"type": "Feature", "geometry": {"type": "Point", "coordinates": [-73.190649, 40.759299]}, "properties": {"name": "Central Islip Hold Room", "city": "Central Islip", "state": "NY", "type": "Hold/Staging", "pop": 9.0}}, {"type": "Feature", "geometry": {"type": "Point", "coordinates": [-80.3856, 25.730701]}, "properties": {"name": "Columbia Kendal Hospital", "city": "Miami", "state": "FL", "type": "Medical", "pop": 1.5}}, {"type": "Feature", "geometry": {"type": "Point", "coordinates": [-85.737754, 38.277738]}, "properties": {"name": "Clark County Jail", "city": "Jeffersonville", "state": "IN", "type": "Federal", "pop": 79.3}}, {"type": "Feature", "geometry": {"type": "Point", "coordinates": [-87.120099, 39.523834]}, "properties": {"name": "Clay County Justice Center", "city": "Brazil", "state": "IN", "type": "Federal", "pop": 249.2}}, {"type": "Feature", "geometry": {"type": "Point", "coordinates": [-81.691781, 41.504901]}, "properties": {"name": "Cleveland Hold Room", "city": "Cleveland", "state": "OH", "type": "Hold/Staging", "pop": 0.1}}, {"type": "Feature", "geometry": {"type": "Point", "coordinates": [-73.468035, 44.719593]}, "properties": {"name": "Clinton County Jail", "city": "Plattsburgh", "state": "NY", "type": "Federal", "pop": 1.5}}, {"type": "Feature", "geometry": {"type": "Point", "coordinates": [-86.508778, 40.279209]}, "properties": {"name": "Clinton County Jail", "city": "Frankfort", "state": "IN", "type": "Federal", "pop": 21.0}}, {"type": "Feature", "geometry": {"type": "Point", "coordinates": [-77.336887, 41.154871]}, "properties": {"name": "Clinton County Corr. Fac.", "city": "Mcelhattan", "state": "PA", "type": "Federal", "pop": 89.8}}, {"type": "Feature", "geometry": {"type": "Point", "coordinates": [-80.837843, 35.222886]}, "properties": {"name": "Charlotte Hold Room", "city": "Charlotte", "state": "NC", "type": "Hold/Staging", "pop": 15.9}}, {"type": "Feature", "geometry": {"type": "Point", "coordinates": [-85.297818, 35.106032]}, "properties": {"name": "Chattanooga Hold Room", "city": "Red Bank", "state": "TN", "type": "Hold/Staging", "pop": 4.3}}, {"type": "Feature", "geometry": {"type": "Point", "coordinates": [-81.038982, 34.009224]}, "properties": {"name": "Columbia, SC Holdroom", "city": "Columbia", "state": "SC", "type": "Hold/Staging", "pop": 1.5}}, {"type": "Feature", "geometry": {"type": "Point", "coordinates": [-105.157937, 38.440611]}, "properties": {"name": "Colo Dept Of Corrections", "city": "Canon City", "state": "CO", "type": "Non-Dedicated", "pop": 1.0}}, {"type": "Feature", "geometry": {"type": "Point", "coordinates": [-81.765724, 26.126273]}, "properties": {"name": "Collier County Sheriff", "city": "Naples", "state": "FL", "type": "Non-Dedicated", "pop": 41.0}}, {"type": "Feature", "geometry": {"type": "Point", "coordinates": [-84.496322, 39.089084]}, "properties": {"name": "Campbell Co Det Ctr", "city": "Newport", "state": "KY", "type": "Federal", "pop": 122.4}}, {"type": "Feature", "geometry": {"type": "Point", "coordinates": [-107.544964, 40.513626]}, "properties": {"name": "Craig Holdroom", "city": "Craig", "state": "CO", "type": "Hold/Staging", "pop": 0.1}}, {"type": "Feature", "geometry": {"type": "Point", "coordinates": [-91.670085, 41.975295]}, "properties": {"name": "Cedar Rapids Hold Room", "city": "Cedar Rapids", "state": "IA", "type": "Hold/Staging", "pop": 1.6}}, {"type": "Feature", "geometry": {"type": "Point", "coordinates": [-94.205913, 46.355872]}, "properties": {"name": "Crow Wing County Jail", "city": "Brainerd", "state": "MN", "type": "Non-Dedicated", "pop": 1.6}}, {"type": "Feature", "geometry": {"type": "Point", "coordinates": [-97.396381, 27.800583]}, "properties": {"name": "Corpus Christi EOR Hold Room", "city": "Corpus Christi", "state": "TX", "type": "Hold/Staging", "pop": 1.2}}, {"type": "Feature", "geometry": {"type": "Point", "coordinates": [-122.422663, 47.25021]}, "properties": {"name": "NW ICE Processing Ctr", "city": "Tacoma", "state": "WA", "type": "Dedicated", "pop": 1412.7}}, {"type": "Feature", "geometry": {"type": "Point", "coordinates": [-104.81751, 38.83347]}, "properties": {"name": "Colo Springs Den HSI Hold", "city": "Colorado Springs", "state": "CO", "type": "Hold/Staging", "pop": 1.9}}, {"type": "Feature", "geometry": {"type": "Point", "coordinates": [-106.324898, 42.852072]}, "properties": {"name": "Casper Holdroom", "city": "Casper", "state": "WY", "type": "Hold/Staging", "pop": 0.1}}, {"type": "Feature", "geometry": {"type": "Point", "coordinates": [-70.28162, 43.650862]}, "properties": {"name": "Cumberland County Jail", "city": "Portland", "state": "ME", "type": "Federal", "pop": 60.7}}, {"type": "Feature", "geometry": {"type": "Point", "coordinates": [-78.123706, 38.222836]}, "properties": {"name": "Central VA Regional Jail", "city": "Orange", "state": "VA", "type": "Non-Dedicated", "pop": 0.3}}, {"type": "Feature", "geometry": {"type": "Point", "coordinates": [-96.418874, 42.41501]}, "properties": {"name": "Dakota County Jail", "city": "Dakota City", "state": "NE", "type": "Federal", "pop": 18.9}}, {"type": "Feature", "geometry": {"type": "Point", "coordinates": [-96.815601, 32.776299]}, "properties": {"name": "Dallas County Jail-Lew Sterrett", "city": "Dallas", "state": "TX", "type": "Federal", "pop": 1.0}}, {"type": "Feature", "geometry": {"type": "Point", "coordinates": [-96.872156, 32.823622]}, "properties": {"name": "Dallas F.O. Hold", "city": "Dallas", "state": "TX", "type": "Hold/Staging", "pop": 124.7}}, {"type": "Feature", "geometry": {"type": "Point", "coordinates": [-111.904465, 40.980658]}, "properties": {"name": "Davis Co. Jail", "city": "Farmington", "state": "UT", "type": "Non-Dedicated", "pop": 6.1}}, {"type": "Feature", "geometry": {"type": "Point", "coordinates": [-104.848777, 39.783607]}, "properties": {"name": "Denver Hold Room", "city": "Denver", "state": "CO", "type": "Hold/Staging", "pop": 4.7}}, {"type": "Feature", "geometry": {"type": "Point", "coordinates": [-104.864502, 39.766325]}, "properties": {"name": "Denver Contract Det. Fac.", "city": "Aurora", "state": "CO", "type": "Dedicated", "pop": 1170.7}}, {"type": "Feature", "geometry": {"type": "Point", "coordinates": [-83.037998, 42.408815]}, "properties": {"name": "U.S. Immigration, Detroit", "city": "Detroit", "state": "MI", "type": "Hold/Staging", "pop": 0.7}}, {"type": "Feature", "geometry": {"type": "Point", "coordinates": [-74.127789, 40.717437]}, "properties": {"name": "Delaney Hall Detention Facility", "city": "Newark", "state": "NJ", "type": "Non-Dedicated", "pop": 712.0}}, {"type": "Feature", "geometry": {"type": "Point", "coordinates": [-100.899841, 29.393471]}, "properties": {"name": "Del Rio DRO Hold Room", "city": "Del Rio", "state": "TX", "type": "Hold/Staging", "pop": 1.8}}, {"type": "Feature", "geometry": {"type": "Point", "coordinates": [-104.991198, 39.727319]}, "properties": {"name": "Denver Health Medical Center", "city": "Denver", "state": "CO", "type": "Medical", "pop": 0.5}}, {"type": "Feature", "geometry": {"type": "Point", "coordinates": [-88.706195, 43.407113]}, "properties": {"name": "Dodge County Jail, Juneau", "city": "Juneau", "state": "WI", "type": "Federal", "pop": 104.6}}, {"type": "Feature", "geometry": {"type": "Point", "coordinates": [-106.807471, 32.302904]}, "properties": {"name": "Dona Ana County Detention Facility", "city": "Las Cruces", "state": "NM", "type": "Non-Dedicated", "pop": 1.0}}, {"type": "Feature", "geometry": {"type": "Point", "coordinates": [-80.221052, 33.057249]}, "properties": {"name": "Dorchester Co Det Ctr", "city": "Summerville", "state": "SC", "type": "Federal", "pop": 2.9}}, {"type": "Feature", "geometry": {"type": "Point", "coordinates": [-104.860137, 39.372829]}, "properties": {"name": "Douglas County Detention Center", "city": "Castle Rock", "state": "CO", "type": "Non-Dedicated", "pop": 0.1}}, {"type": "Feature", "geometry": {"type": "Point", "coordinates": [-92.097998, 46.721745]}, "properties": {"name": "Douglas Co. Wisconsin", "city": "Superior", "state": "WI", "type": "Non-Dedicated", "pop": 19.7}}, {"type": "Feature", "geometry": {"type": "Point", "coordinates": [-106.349506, 31.756534]}, "properties": {"name": "DSMC - Del Sol Medical Center", "city": "El Paso", "state": "TX", "type": "Medical", "pop": 0.9}}, {"type": "Feature", "geometry": {"type": "Point", "coordinates": [-93.623253, 41.585489]}, "properties": {"name": "Des Moines Hold Room", "city": "Des Moines", "state": "IA", "type": "Hold/Staging", "pop": 0.4}}, {"type": "Feature", "geometry": {"type": "Point", "coordinates": [-117.297825, 34.47175]}, "properties": {"name": "Desert Valley Hospital", "city": "Victorville", "state": "CA", "type": "Medical", "pop": 0.3}}, {"type": "Feature", "geometry": {"type": "Point", "coordinates": [-107.874147, 37.237142]}, "properties": {"name": "Durango Holdroom", "city": "Durango", "state": "CO", "type": "Hold/Staging", "pop": 0.4}}, {"type": "Feature", "geometry": {"type": "Point", "coordinates": [-87.070426, 37.787934]}, "properties": {"name": "Daviess County Detention Center", "city": "Owensboro", "state": "KY", "type": "Non-Dedicated", "pop": 3.9}}, {"type": "Feature", "geometry": {"type": "Point", "coordinates": [-75.487951, 39.154507]}, "properties": {"name": "Dover Holdroom", "city": "Dover", "state": "DE", "type": "Hold/Staging", "pop": 2.8}}, {"type": "Feature", "geometry": {"type": "Point", "coordinates": [-116.024888, 36.21458]}, "properties": {"name": "Desert View Hospital", "city": "Pahrump", "state": "NV", "type": "Medical", "pop": 0.4}}, {"type": "Feature", "geometry": {"type": "Point", "coordinates": [-111.51927, 32.817677]}, "properties": {"name": "Eloy Federal Contract Fac", "city": "Eloy", "state": "AZ", "type": "Dedicated", "pop": 1304.1}}, {"type": "Feature", "geometry": {"type": "Point", "coordinates": [-99.833507, 31.21701]}, "properties": {"name": "Eden Detention Ctr", "city": "Eden", "state": "TX", "type": "Other/Unknown", "pop": 411.9}}, {"type": "Feature", "geometry": {"type": "Point", "coordinates": [-97.932129, 26.303264]}, "properties": {"name": "East Hidalgo Detention Center", "city": "La Villa", "state": "TX", "type": "Federal", "pop": 3.6}}, {"type": "Feature", "geometry": {"type": "Point", "coordinates": [-115.672984, 43.137034]}, "properties": {"name": "Elmore County Jail", "city": "Mountain Home", "state": "ID", "type": "Federal", "pop": 7.7}}, {"type": "Feature", "geometry": {"type": "Point", "coordinates": [-97.767334, 26.480407]}, "properties": {"name": "El Valle Detention Facility", "city": "Raymondville", "state": "TX", "type": "Non-Dedicated", "pop": 882.5}}, {"type": "Feature", "geometry": {"type": "Point", "coordinates": [-74.189694, 40.666157]}, "properties": {"name": "Elizabeth Contract D.F.", "city": "Elizabeth", "state": "NJ", "type": "Dedicated", "pop": 304.1}}, {"type": "Feature", "geometry": {"type": "Point", "coordinates": [-106.476018, 31.780626]}, "properties": {"name": "El Paso Behavioral Health System", "city": "El Paso", "state": "TX", "type": "Medical", "pop": 17.3}}, {"type": "Feature", "geometry": {"type": "Point", "coordinates": [-106.369651, 31.796447]}, "properties": {"name": "El Paso SPC", "city": "El Paso", "state": "TX", "type": "Dedicated", "pop": 887.2}}, {"type": "Feature", "geometry": {"type": "Point", "coordinates": [-106.483474, 31.758577]}, "properties": {"name": "El Paso County Detention Facility", "city": "El Paso", "state": "TX", "type": "Other/Unknown", "pop": 4.0}}, {"type": "Feature", "geometry": {"type": "Point", "coordinates": [-106.474224, 31.783763]}, "properties": {"name": "El Paso LTAC Hospital", "city": "El Paso", "state": "TX", "type": "Medical", "pop": 0.5}}, {"type": "Feature", "geometry": {"type": "Point", "coordinates": [-80.065897, 42.124775]}, "properties": {"name": "Erie County Jail, PA", "city": "Erie", "state": "PA", "type": "Federal", "pop": 14.8}}, {"type": "Feature", "geometry": {"type": "Point", "coordinates": [-106.298333, 31.812729]}, "properties": {"name": "ERO El Paso Camp East Montana", "city": "El Paso", "state": "TX", "type": "Dedicated", "pop": 2790.2}}, {"type": "Feature", "geometry": {"type": "Point", "coordinates": [-86.184605, 39.777393]}, "properties": {"name": "Eskenazi Health", "city": "Indianapolis", "state": "IN", "type": "Medical", "pop": 0.1}}, {"type": "Feature", "geometry": {"type": "Point", "coordinates": [-86.011933, 34.015737]}, "properties": {"name": "Etowah County Jail (AL)", "city": "Gadsden", "state": "AL", "type": "Federal", "pop": 74.9}}, {"type": "Feature", "geometry": {"type": "Point", "coordinates": [-123.089385, 44.052201]}, "properties": {"name": "Eugene Holdroom", "city": "Eugene", "state": "OR", "type": "Hold/Staging", "pop": 0.7}}, {"type": "Feature", "geometry": {"type": "Point", "coordinates": [-84.544851, 38.066097]}, "properties": {"name": "Fayette County Detention Center", "city": "Lexington", "state": "KY", "type": "Federal", "pop": 3.3}}, {"type": "Feature", "geometry": {"type": "Point", "coordinates": [-122.591006, 48.846499]}, "properties": {"name": "Ferndale Hold Room", "city": "Ferndale", "state": "WA", "type": "Hold/Staging", "pop": 0.9}}, {"type": "Feature", "geometry": {"type": "Point", "coordinates": [-100.875929, 37.967657]}, "properties": {"name": "Finney County Jail", "city": "Garden City", "state": "KS", "type": "Non-Dedicated", "pop": 3.4}}, {"type": "Feature", "geometry": {"type": "Point", "coordinates": [-81.990967, 30.883369]}, "properties": {"name": "Annex Folkston IPC", "city": "Folkston", "state": "GA", "type": "Dedicated", "pop": 270.3}}, {"type": "Feature", "geometry": {"type": "Point", "coordinates": [-81.979593, 30.874581]}, "properties": {"name": "Folkston D Ray ICE Processing Ctr", "city": "Folkston", "state": "GA", "type": "Dedicated", "pop": 564.1}}, {"type": "Feature", "geometry": {"type": "Point", "coordinates": [-81.977941, 30.87638]}, "properties": {"name": "Folkston Main IPC", "city": "Folkston", "state": "GA", "type": "Dedicated", "pop": 614.8}}, {"type": "Feature", "geometry": {"type": "Point", "coordinates": [-82.372325, 30.214808]}, "properties": {"name": "Baker C. I.", "city": "Sanderson", "state": "FL", "type": "Other/Unknown", "pop": 566.7}}, {"type": "Feature", "geometry": {"type": "Point", "coordinates": [-80.133263, 26.197471]}, "properties": {"name": "Ft Lauderdale Behavor Hlth Ctr", "city": "Oakland Park", "state": "FL", "type": "Medical", "pop": 8.4}}, {"type": "Feature", "geometry": {"type": "Point", "coordinates": [-80.897956, 25.86434]}, "properties": {"name": "Florida Soft-Sided Facility-South", "city": "Ochopee", "state": "FL", "type": "Dedicated", "pop": 991.2}}, {"type": "Feature", "geometry": {"type": "Point", "coordinates": [-111.378505, 33.06496]}, "properties": {"name": "Florence SPC", "city": "Florence", "state": "AZ", "type": "Dedicated", "pop": 338.9}}, {"type": "Feature", "geometry": {"type": "Point", "coordinates": [-111.485449, 33.07325]}, "properties": {"name": "Florence Hospital", "city": "Florence", "state": "AZ", "type": "Medical", "pop": 0.6}}, {"type": "Feature", "geometry": {"type": "Point", "coordinates": [-85.141616, 34.279919]}, "properties": {"name": "Floyd County Jail", "city": "Rome", "state": "GA", "type": "Federal", "pop": 5.1}}, {"type": "Feature", "geometry": {"type": "Point", "coordinates": [-81.808365, 26.548906]}, "properties": {"name": "Fort Myers ERO Holdroom", "city": "Fort Myers", "state": "FL", "type": "Hold/Staging", "pop": 8.5}}, {"type": "Feature", "geometry": {"type": "Point", "coordinates": [-77.64441, 40.001549]}, "properties": {"name": "Franklin County Jail", "city": "Chambersburg", "state": "PA", "type": "Other/Unknown", "pop": 1.3}}, {"type": "Feature", "geometry": {"type": "Point", "coordinates": [-104.98429, 40.083661]}, "properties": {"name": "Frederick Holdroom", "city": "Frederick", "state": "CO", "type": "Hold/Staging", "pop": 1.7}}, {"type": "Feature", "geometry": {"type": "Point", "coordinates": [-93.367781, 43.646255]}, "properties": {"name": "Freeborn County Jail, MN", "city": "Albert Lea", "state": "MN", "type": "Non-Dedicated", "pop": 84.7}}, {"type": "Feature", "geometry": {"type": "Point", "coordinates": [-119.785296, 36.732676]}, "properties": {"name": "Fresno Holdroom", "city": "Fresno", "state": "CA", "type": "Hold/Staging", "pop": 7.1}}, {"type": "Feature", "geometry": {"type": "Point", "coordinates": [-99.109733, 28.88813]}, "properties": {"name": "Frio Regional Hospital", "city": "Pearsall", "state": "TX", "type": "Medical", "pop": 0.9}}, {"type": "Feature", "geometry": {"type": "Point", "coordinates": [-78.438276, 37.319501]}, "properties": {"name": "ICA - Farmville", "city": "Farmville", "state": "VA", "type": "Dedicated", "pop": 714.5}}, {"type": "Feature", "geometry": {"type": "Point", "coordinates": [-111.378505, 33.06496]}, "properties": {"name": "Florence Staging Facility", "city": "Florence", "state": "AZ", "type": "Hold/Staging", "pop": 344.9}}, {"type": "Feature", "geometry": {"type": "Point", "coordinates": [-97.222229, 34.740003]}, "properties": {"name": "Garvin County Jail", "city": "Pauls Valley", "state": "OK", "type": "Non-Dedicated", "pop": 0.9}}, {"type": "Feature", "geometry": {"type": "Point", "coordinates": [-81.19155, 41.504557]}, "properties": {"name": "Geauga County Jail", "city": "Chardon", "state": "OH", "type": "Federal", "pop": 24.5}}, {"type": "Feature", "geometry": {"type": "Point", "coordinates": [-97.055851, 47.935792]}, "properties": {"name": "Grand Forks County Correc", "city": "Grand Forks", "state": "ND", "type": "Non-Dedicated", "pop": 22.3}}, {"type": "Feature", "geometry": {"type": "Point", "coordinates": [-97.055851, 47.935792]}, "properties": {"name": "Grand Forks Co. Juvenile", "city": "Grand Forks", "state": "ND", "type": "Family/Youth", "pop": 1.0}}, {"type": "Feature", "geometry": {"type": "Point", "coordinates": [-108.585533, 39.087429]}, "properties": {"name": "Grand Junction Holdroom", "city": "Grand Junction", "state": "CO", "type": "Hold/Staging", "pop": 0.5}}, {"type": "Feature", "geometry": {"type": "Point", "coordinates": [-81.124018, 26.838714]}, "properties": {"name": "Glades County Detention Center", "city": "Moore Haven", "state": "FL", "type": "Non-Dedicated", "pop": 474.9}}, {"type": "Feature", "geometry": {"type": "Point", "coordinates": [-119.227817, 35.669764]}, "properties": {"name": "Golden State Annex", "city": "Mcfarland", "state": "CA", "type": "Dedicated", "pop": 606.7}}, {"type": "Feature", "geometry": {"type": "Point", "coordinates": [-86.25788, 37.491073]}, "properties": {"name": "Grayson County Detention Center", "city": "Leitchfield", "state": "KY", "type": "Federal", "pop": 132.3}}, {"type": "Feature", "geometry": {"type": "Point", "coordinates": [-93.291068, 37.217759]}, "properties": {"name": "Greene County Jail", "city": "Springfield", "state": "MO", "type": "Non-Dedicated", "pop": 235.3}}, {"type": "Feature", "geometry": {"type": "Point", "coordinates": [-97.034978, 47.92382]}, "properties": {"name": "Grand Forks Hold Room", "city": "Grand Forks", "state": "ND", "type": "Hold/Staging", "pop": 0.5}}, {"type": "Feature", "geometry": {"type": "Point", "coordinates": [-85.670052, 42.972684]}, "properties": {"name": "Grand Rapids Holdroom", "city": "Grand Rapids", "state": "MI", "type": "Hold/Staging", "pop": 3.7}}, {"type": "Feature", "geometry": {"type": "Point", "coordinates": [-82.241882, 34.937155]}, "properties": {"name": "Greer Hold Room", "city": "Greer", "state": "SC", "type": "Hold/Staging", "pop": 1.3}}, {"type": "Feature", "geometry": {"type": "Point", "coordinates": [-107.323402, 39.515051]}, "properties": {"name": "Glenwood Springs Holdroom", "city": "Glenwood Springs", "state": "CO", "type": "Hold/Staging", "pop": 0.3}}, {"type": "Feature", "geometry": {"type": "Point", "coordinates": [-77.781167, 21.521757]}, "properties": {"name": "JTF Camp Six", "city": "FPO", "state": "CU", "type": "Federal", "pop": 3.4}}, {"type": "Feature", "geometry": {"type": "Point", "coordinates": [-77.781167, 21.521757]}, "properties": {"name": "Migrant Ops Center East", "city": "FPO", "state": "CU", "type": "Federal", "pop": 0.1}}, {"type": "Feature", "geometry": {"type": "Point", "coordinates": [-77.781167, 21.521757]}, "properties": {"name": "Migrant Ops Center Main Av622", "city": "FPO", "state": "CU", "type": "Federal", "pop": 1.1}}, {"type": "Feature", "geometry": {"type": "Point", "coordinates": [144.750595, 13.475742]}, "properties": {"name": "Dept Of Corrections-Hagatna", "city": "Hagatna", "state": "GU", "type": "Federal", "pop": 15.7}}, {"type": "Feature", "geometry": {"type": "Point", "coordinates": [-83.815583, 34.242651]}, "properties": {"name": "Hall Co Jail", "city": "Gainesville", "state": "GA", "type": "Federal", "pop": 0.1}}, {"type": "Feature", "geometry": {"type": "Point", "coordinates": [-93.097371, 42.359845]}, "properties": {"name": "Hardin Co Jail", "city": "Eldora", "state": "IA", "type": "Non-Dedicated", "pop": 41.9}}, {"type": "Feature", "geometry": {"type": "Point", "coordinates": [-72.603666, 41.651255]}, "properties": {"name": "Hartford Office", "city": "Hartford", "state": "CT", "type": "Hold/Staging", "pop": 2.7}}, {"type": "Feature", "geometry": {"type": "Point", "coordinates": [-98.328077, 40.926919]}, "properties": {"name": "Hall County Sheriff", "city": "Grand Island", "state": "NE", "type": "Non-Dedicated", "pop": 15.5}}, {"type": "Feature", "geometry": {"type": "Point", "coordinates": [-78.848388, 38.426799]}, "properties": {"name": "Harrisonburg Hold Room", "city": "Harrisonburg", "state": "VA", "type": "Hold/Staging", "pop": 1.5}}, {"type": "Feature", "geometry": {"type": "Point", "coordinates": [-95.467788, 30.284935]}, "properties": {"name": "HCA Houston Hc Conroe", "city": "Conroe", "state": "TX", "type": "Medical", "pop": 3.5}}, {"type": "Feature", "geometry": {"type": "Point", "coordinates": [-89.4765, 30.303202]}, "properties": {"name": "Hancock Co Pub Sfty Cplx", "city": "Bay St. Louis", "state": "MS", "type": "Non-Dedicated", "pop": 33.9}}, {"type": "Feature", "geometry": {"type": "Point", "coordinates": [-95.374527, 29.712155]}, "properties": {"name": "Harris County Psychiatric Center", "city": "Houston", "state": "TX", "type": "Medical", "pop": 0.5}}, {"type": "Feature", "geometry": {"type": "Point", "coordinates": [-115.030473, 36.072843]}, "properties": {"name": "Henderson Hospital", "city": "Henderson", "state": "NV", "type": "Medical", "pop": 0.1}}, {"type": "Feature", "geometry": {"type": "Point", "coordinates": [-111.974176, 46.5935]}, "properties": {"name": "Hel District Custody", "city": "Helena", "state": "MT", "type": "Hold/Staging", "pop": 0.1}}, {"type": "Feature", "geometry": {"type": "Point", "coordinates": [-82.456379, 35.314884]}, "properties": {"name": "Henderson County Det. Fac.", "city": "Hendersonville", "state": "NC", "type": "Non-Dedicated", "pop": 0.1}}, {"type": "Feature", "geometry": {"type": "Point", "coordinates": [-114.974629, 36.033216]}, "properties": {"name": "Henderson Detention", "city": "Henderson", "state": "NV", "type": "Federal", "pop": 90.6}}, {"type": "Feature", "geometry": {"type": "Point", "coordinates": [-76.861121, 37.49546]}, "properties": {"name": "Henrico County Jail", "city": "Barhamsville", "state": "VA", "type": "Non-Dedicated", "pop": 0.1}}, {"type": "Feature", "geometry": {"type": "Point", "coordinates": [-95.387543, 29.72272]}, "properties": {"name": "Houston Healthcare Hosp", "city": "Houston", "state": "TX", "type": "Medical", "pop": 2.1}}, {"type": "Feature", "geometry": {"type": "Point", "coordinates": [-82.373091, 27.95822]}, "properties": {"name": "Hillsborough County Jail", "city": "Tampa", "state": "FL", "type": "Non-Dedicated", "pop": 4.8}}, {"type": "Feature", "geometry": {"type": "Point", "coordinates": [-97.714124, 26.178023]}, "properties": {"name": "Harlingen Hold Room", "city": "Harlingen", "state": "TX", "type": "Hold/Staging", "pop": 16.9}}, {"type": "Feature", "geometry": {"type": "Point", "coordinates": [-97.67513, 26.157745]}, "properties": {"name": "Harlingen Medical Center", "city": "Harlingen", "state": "TX", "type": "Medical", "pop": 0.1}}, {"type": "Feature", "geometry": {"type": "Point", "coordinates": [-95.311156, 29.952045]}, "properties": {"name": "Houston FO Holdroom", "city": "Houston", "state": "TX", "type": "Hold/Staging", "pop": 2.5}}, {"type": "Feature", "geometry": {"type": "Point", "coordinates": [-95.312188, 29.950836]}, "properties": {"name": "Houston Contract Det.Fac.", "city": "Houston", "state": "TX", "type": "Dedicated", "pop": 864.8}}, {"type": "Feature", "geometry": {"type": "Point", "coordinates": [-87.539913, 37.337747]}, "properties": {"name": "Hopkins County Jail", "city": "Madisonville", "state": "KY", "type": "Federal", "pop": 148.9}}, {"type": "Feature", "geometry": {"type": "Point", "coordinates": [-112.033754, 43.514758]}, "properties": {"name": "Idaho Falls Hold Room", "city": "Idaho Falls", "state": "ID", "type": "Hold/Staging", "pop": 0.1}}, {"type": "Feature", "geometry": {"type": "Point", "coordinates": [-115.498883, 32.678948]}, "properties": {"name": "Imperial Sub Office Hold Room", "city": "Calexico", "state": "CA", "type": "Hold/Staging", "pop": 6.5}}, {"type": "Feature", "geometry": {"type": "Point", "coordinates": [-86.132978, 40.644997]}, "properties": {"name": "Miami Correctional Center", "city": "Bunkerhill", "state": "IN", "type": "Non-Dedicated", "pop": 67.1}}, {"type": "Feature", "geometry": {"type": "Point", "coordinates": [-86.153286, 39.76654]}, "properties": {"name": "Indianapolis Hold Room", "city": "Indianapolis", "state": "IN", "type": "Hold/Staging", "pop": 41.5}}, {"type": "Feature", "geometry": {"type": "Point", "coordinates": [-115.397861, 32.690811]}, "properties": {"name": "Imperial Regional Adult Det Fac", "city": "Calexico", "state": "CA", "type": "Dedicated", "pop": 634.7}}, {"type": "Feature", "geometry": {"type": "Point", "coordinates": [-83.254628, 31.580997]}, "properties": {"name": "Irwin County Detention Center", "city": "Ocilla", "state": "GA", "type": "Non-Dedicated", "pop": 19.2}}, {"type": "Feature", "geometry": {"type": "Point", "coordinates": [-111.836757, 33.418011]}, "properties": {"name": "AZ Rem Op Coord Center (AROCC)", "city": "Mesa", "state": "AZ", "type": "Hold/Staging", "pop": 55.1}}, {"type": "Feature", "geometry": {"type": "Point", "coordinates": [-90.060426, 32.287959]}, "properties": {"name": "Jackson MS Hold Room", "city": "Pearl", "state": "MS", "type": "Hold/Staging", "pop": 3.5}}, {"type": "Feature", "geometry": {"type": "Point", "coordinates": [-81.590026, 30.255532]}, "properties": {"name": "Jacksonville Sub-Office", "city": "Jacksonville", "state": "FL", "type": "Hold/Staging", "pop": 11.1}}, {"type": "Feature", "geometry": {"type": "Point", "coordinates": [-95.46021, 30.34444]}, "properties": {"name": "Joe Corley Processing Ctr", "city": "Conroe", "state": "TX", "type": "Non-Dedicated", "pop": 878.7}}, {"type": "Feature", "geometry": {"type": "Point", "coordinates": [-111.910892, 43.673358]}, "properties": {"name": "Jefferson County Jail", "city": "Rigby", "state": "ID", "type": "Non-Dedicated", "pop": 3.5}}, {"type": "Feature", "geometry": {"type": "Point", "coordinates": [-92.15106, 31.707274]}, "properties": {"name": "Lasalle ICE Processing Center", "city": "Jena", "state": "LA", "type": "Dedicated", "pop": 1061.7}}, {"type": "Feature", "geometry": {"type": "Point", "coordinates": [-92.5364, 31.31723]}, "properties": {"name": "Alexandria Staging Facility", "city": "Alexandria", "state": "LA", "type": "Hold/Staging", "pop": 618.5}}, {"type": "Feature", "geometry": {"type": "Point", "coordinates": [-73.782718, 40.649562]}, "properties": {"name": "JFK International Ap - T7", "city": "Jamaica", "state": "NY", "type": "Other/Unknown", "pop": 5.3}}, {"type": "Feature", "geometry": {"type": "Point", "coordinates": [-92.724609, 32.222096]}, "properties": {"name": "Jackson Parish Correctional Center", "city": "Jonesboro", "state": "LA", "type": "Dedicated", "pop": 1200.8}}, {"type": "Feature", "geometry": {"type": "Point", "coordinates": [-80.213994, 25.792538]}, "properties": {"name": "Jackson Memorial Hospital", "city": "Miami", "state": "FL", "type": "Medical", "pop": 0.3}}, {"type": "Feature", "geometry": {"type": "Point", "coordinates": [-95.013688, 45.146011]}, "properties": {"name": "Kandiyohi Co. Jail", "city": "Willmar", "state": "MN", "type": "Non-Dedicated", "pop": 107.3}}, {"type": "Feature", "geometry": {"type": "Point", "coordinates": [-94.675548, 39.268843]}, "properties": {"name": "Kansas City Holdroom", "city": "Kansas City", "state": "MO", "type": "Hold/Staging", "pop": 15.3}}, {"type": "Feature", "geometry": {"type": "Point", "coordinates": [-97.911848, 28.883485]}, "properties": {"name": "Karnes Cty Corr Ctr", "city": "Karnes City", "state": "TX", "type": "Federal", "pop": 1.1}}, {"type": "Feature", "geometry": {"type": "Point", "coordinates": [-97.075195, 36.879621]}, "properties": {"name": "Kay Co Justice Facility", "city": "Newkirk", "state": "OK", "type": "Non-Dedicated", "pop": 154.1}}, {"type": "Feature", "geometry": {"type": "Point", "coordinates": [-84.531062, 39.00245]}, "properties": {"name": "Kenton Co Detention Ctr", "city": "Covington", "state": "KY", "type": "Non-Dedicated", "pop": 94.9}}, {"type": "Feature", "geometry": {"type": "Point", "coordinates": [-100.418034, 29.311329]}, "properties": {"name": "Kinney County Jail", "city": "Brackettville", "state": "TX", "type": "Non-Dedicated", "pop": 0.1}}, {"type": "Feature", "geometry": {"type": "Point", "coordinates": [-83.847656, 36.093499]}, "properties": {"name": "Knox County Detention Facility", "city": "Knoxville", "state": "TN", "type": "Federal", "pop": 28.8}}, {"type": "Feature", "geometry": {"type": "Point", "coordinates": [-83.916773, 35.960303]}, "properties": {"name": "Knoxville Hold Room", "city": "Knoxville", "state": "TN", "type": "Hold/Staging", "pop": 3.9}}, {"type": "Feature", "geometry": {"type": "Point", "coordinates": [-111.821629, 33.425398]}, "properties": {"name": "Promise Hospital", "city": "Mesa", "state": "AZ", "type": "Medical", "pop": 2.9}}, {"type": "Feature", "geometry": {"type": "Point", "coordinates": [-80.48913, 25.75434]}, "properties": {"name": "Krome/Miami Hub", "city": "Miami", "state": "FL", "type": "Hold/Staging", "pop": 6.2}}, {"type": "Feature", "geometry": {"type": "Point", "coordinates": [-97.915298, 28.884651]}, "properties": {"name": "Karnes County Residential Center", "city": "Karnes City", "state": "TX", "type": "Family/Youth", "pop": 1220.1}}, {"type": "Feature", "geometry": {"type": "Point", "coordinates": [-80.496826, 25.76032]}, "properties": {"name": "Krome North SPC", "city": "Miami", "state": "FL", "type": "Dedicated", "pop": 870.1}}, {"type": "Feature", "geometry": {"type": "Point", "coordinates": [-80.350939, 25.758146]}, "properties": {"name": "Krome Hold Room", "city": "Miami", "state": "FL", "type": "Hold/Staging", "pop": 0.1}}, {"type": "Feature", "geometry": {"type": "Point", "coordinates": [-81.732923, 28.802003]}, "properties": {"name": "Lake County Jail", "city": "Tavares", "state": "FL", "type": "Other/Unknown", "pop": 2.0}}, {"type": "Feature", "geometry": {"type": "Point", "coordinates": [-114.290189, 34.146226]}, "properties": {"name": "La Paz County Adult Det. Fac.", "city": "Parker", "state": "AZ", "type": "Federal", "pop": 1.7}}, {"type": "Feature", "geometry": {"type": "Point", "coordinates": [-104.820095, 41.134753]}, "properties": {"name": "Laramie County Jail", "city": "Cheyenne", "state": "WY", "type": "Federal", "pop": 4.5}}, {"type": "Feature", "geometry": {"type": "Point", "coordinates": [-84.071207, 37.056703]}, "properties": {"name": "Laurel County Corrections", "city": "London", "state": "KY", "type": "Federal", "pop": 1.3}}, {"type": "Feature", "geometry": {"type": "Point", "coordinates": [-106.763654, 32.31994]}, "properties": {"name": "Las Cruces Hold Room", "city": "Las Cruces", "state": "NM", "type": "Hold/Staging", "pop": 0.5}}, {"type": "Feature", "geometry": {"type": "Point", "coordinates": [-92.801514, 31.849565]}, "properties": {"name": "Winn Corr Institute", "city": "Winnfield", "state": "LA", "type": "Dedicated", "pop": 1493.7}}, {"type": "Feature", "geometry": {"type": "Point", "coordinates": [-103.729316, 44.375136]}, "properties": {"name": "Lawrence Co. Jail, SD", "city": "Deadwood", "state": "SD", "type": "Non-Dedicated", "pop": 9.8}}, {"type": "Feature", "geometry": {"type": "Point", "coordinates": [-101.845109, 33.58437]}, "properties": {"name": "Lubbock Hold Room", "city": "Lubbock", "state": "TX", "type": "Hold/Staging", "pop": 4.3}}, {"type": "Feature", "geometry": {"type": "Point", "coordinates": [-81.25084, 33.978481]}, "properties": {"name": "Lexington County Jail", "city": "Lexington", "state": "SC", "type": "Federal", "pop": 6.8}}, {"type": "Feature", "geometry": {"type": "Point", "coordinates": [-71.205243, 42.484282]}, "properties": {"name": "Lahey Hospital & Med Ctr", "city": "Burlington", "state": "MA", "type": "Medical", "pop": 0.1}}, {"type": "Feature", "geometry": {"type": "Point", "coordinates": [-91.568381, 30.941263]}, "properties": {"name": "Louisiana Ice Processing Center", "city": "Angola", "state": "LA", "type": "Dedicated", "pop": 192.7}}, {"type": "Feature", "geometry": {"type": "Point", "coordinates": [-96.512347, 31.528784]}, "properties": {"name": "Limestone Det Center", "city": "Groesbeck", "state": "TX", "type": "Federal", "pop": 249.6}}, {"type": "Feature", "geometry": {"type": "Point", "coordinates": [-100.764118, 41.107277]}, "properties": {"name": "Lincoln County Jail", "city": "North Platte", "state": "NE", "type": "Non-Dedicated", "pop": 26.7}}, {"type": "Feature", "geometry": {"type": "Point", "coordinates": [-91.670085, 41.975295]}, "properties": {"name": "Linn County Jail", "city": "Cedar Rapids", "state": "IA", "type": "Federal", "pop": 41.7}}, {"type": "Feature", "geometry": {"type": "Point", "coordinates": [-105.039886, 40.532993]}, "properties": {"name": "LIRS - LFSRM Fort Collins LTFC CO", "city": "Fort Collins", "state": "CO", "type": "Other/Unknown", "pop": 2.0}}, {"type": "Feature", "geometry": {"type": "Point", "coordinates": [-117.263436, 34.049112]}, "properties": {"name": "Loma Linda University Med Center", "city": "Loma Linda", "state": "CA", "type": "Medical", "pop": 0.1}}, {"type": "Feature", "geometry": {"type": "Point", "coordinates": [-97.42245, 35.876543]}, "properties": {"name": "Logan County Jail", "city": "Guthrie", "state": "OK", "type": "Federal", "pop": 13.6}}, {"type": "Feature", "geometry": {"type": "Point", "coordinates": [-118.239721, 34.054044]}, "properties": {"name": "Los Cust Case", "city": "San Pedro", "state": "CA", "type": "Hold/Staging", "pop": 75.3}}, {"type": "Feature", "geometry": {"type": "Point", "coordinates": [-77.544925, 39.075238]}, "properties": {"name": "Loudoun County", "city": "Leesburg", "state": "VA", "type": "Federal", "pop": 0.9}}, {"type": "Feature", "geometry": {"type": "Point", "coordinates": [-85.761072, 38.253202]}, "properties": {"name": "Louisville Hold Room", "city": "Louisville", "state": "KY", "type": "Hold/Staging", "pop": 1.3}}, {"type": "Feature", "geometry": {"type": "Point", "coordinates": [-92.307733, 34.723782]}, "properties": {"name": "Little Rock Hold Room", "city": "Little Rock", "state": "AR", "type": "Hold/Staging", "pop": 3.3}}, {"type": "Feature", "geometry": {"type": "Point", "coordinates": [-99.44792, 27.529078]}, "properties": {"name": "Laredo Detention Center Hold Room", "city": "Laredo", "state": "TX", "type": "Hold/Staging", "pop": 18.9}}, {"type": "Feature", "geometry": {"type": "Point", "coordinates": [-99.447773, 27.529476]}, "properties": {"name": "Laredo Processing Center", "city": "Laredo", "state": "TX", "type": "Dedicated", "pop": 341.5}}, {"type": "Feature", "geometry": {"type": "Point", "coordinates": [-80.180662, 26.021177]}, "properties": {"name": "Larkin Behavioral Health Svcs", "city": "Hollywood", "state": "FL", "type": "Medical", "pop": 3.9}}, {"type": "Feature", "geometry": {"type": "Point", "coordinates": [-80.292667, 25.706271]}, "properties": {"name": "Larkin Hospital", "city": "South Miami", "state": "FL", "type": "Medical", "pop": 7.3}}, {"type": "Feature", "geometry": {"type": "Point", "coordinates": [-99.336083, 28.045288]}, "properties": {"name": "La Salle Co Regional Det. Center", "city": "Encinal", "state": "TX", "type": "Federal", "pop": 280.1}}, {"type": "Feature", "geometry": {"type": "Point", "coordinates": [-101.843434, 33.585423]}, "properties": {"name": "Lubbock County Jail", "city": "Lubbock", "state": "TX", "type": "Federal", "pop": 4.0}}, {"type": "Feature", "geometry": {"type": "Point", "coordinates": [-115.225127, 36.058347]}, "properties": {"name": "Las Vegas Hold Room", "city": "Las Vegas", "state": "NV", "type": "Hold/Staging", "pop": 5.2}}, {"type": "Feature", "geometry": {"type": "Point", "coordinates": [-75.175347, 40.99273]}, "properties": {"name": "Lehigh Valley Hospital - Pocono", "city": "East Stroudsburg", "state": "PA", "type": "Medical", "pop": 0.3}}, {"type": "Feature", "geometry": {"type": "Point", "coordinates": [-87.847157, 41.864289]}, "properties": {"name": "Loyola Center For Health", "city": "Maywood", "state": "IL", "type": "Medical", "pop": 2.0}}, {"type": "Feature", "geometry": {"type": "Point", "coordinates": [-90.023566, 32.643411]}, "properties": {"name": "Madison Co. Jail, MS.", "city": "Canton", "state": "MS", "type": "Non-Dedicated", "pop": 27.9}}, {"type": "Feature", "geometry": {"type": "Point", "coordinates": [-80.654914, 41.104242]}, "properties": {"name": "Mahoning County Jail", "city": "Youngstown", "state": "OH", "type": "Non-Dedicated", "pop": 101.1}}, {"type": "Feature", "geometry": {"type": "Point", "coordinates": [-82.539955, 27.637592]}, "properties": {"name": "Manatee County Detention-Annex", "city": "Palmetto", "state": "FL", "type": "Non-Dedicated", "pop": 1.5}}, {"type": "Feature", "geometry": {"type": "Point", "coordinates": [-71.466598, 42.998519]}, "properties": {"name": "Manchester Holdroom", "city": "Manchester", "state": "NH", "type": "Hold/Staging", "pop": 0.7}}, {"type": "Feature", "geometry": {"type": "Point", "coordinates": [-82.174886, 29.194381]}, "properties": {"name": "Marion County Jail", "city": "Ocala", "state": "FL", "type": "Federal", "pop": 1.0}}, {"type": "Feature", "geometry": {"type": "Point", "coordinates": [-86.153286, 39.76654]}, "properties": {"name": "Marion County Jail", "city": "Indianapolis", "state": "IN", "type": "Federal", "pop": 76.4}}, {"type": "Feature", "geometry": {"type": "Point", "coordinates": [-80.239852, 27.175606]}, "properties": {"name": "Martin County Jail", "city": "Stuart", "state": "FL", "type": "Non-Dedicated", "pop": 6.5}}, {"type": "Feature", "geometry": {"type": "Point", "coordinates": [-100.459986, 28.719324]}, "properties": {"name": "Maverick County Jail", "city": "Eagle Pass", "state": "TX", "type": "Non-Dedicated", "pop": 0.4}}, {"type": "Feature", "geometry": {"type": "Point", "coordinates": [-98.198209, 26.263994]}, "properties": {"name": "Mcallen Hold Room", "city": "Edinburg", "state": "TX", "type": "Hold/Staging", "pop": 12.9}}, {"type": "Feature", "geometry": {"type": "Point", "coordinates": [-122.876967, 42.325404]}, "properties": {"name": "Medford Sub-Office", "city": "Medford", "state": "OR", "type": "Hold/Staging", "pop": 0.1}}, {"type": "Feature", "geometry": {"type": "Point", "coordinates": [-89.88253, 35.157511]}, "properties": {"name": "Memphis Hold Room", "city": "Memphis", "state": "TN", "type": "Hold/Staging", "pop": 20.8}}, {"type": "Feature", "geometry": {"type": "Point", "coordinates": [-80.180009, 26.019388]}, "properties": {"name": "Memorial Regional Hosp.", "city": "Hollywood", "state": "FL", "type": "Medical", "pop": 0.1}}, {"type": "Feature", "geometry": {"type": "Point", "coordinates": [-98.571897, 29.508318]}, "properties": {"name": "Methodist Hospital", "city": "San Antonio", "state": "TX", "type": "Medical", "pop": 0.2}}, {"type": "Feature", "geometry": {"type": "Point", "coordinates": [-98.49118, 29.441555]}, "properties": {"name": "Methodist Hospital Metropolitan", "city": "San Antonio", "state": "TX", "type": "Medical", "pop": 0.3}}, {"type": "Feature", "geometry": {"type": "Point", "coordinates": [-95.430383, 29.811721]}, "properties": {"name": "Memorial Hermann NW Hosp", "city": "Houston", "state": "TX", "type": "Medical", "pop": 1.0}}, {"type": "Feature", "geometry": {"type": "Point", "coordinates": [-98.348291, 29.552293]}, "properties": {"name": "Methodist Hospital Northeast", "city": "Live Oak", "state": "TX", "type": "Medical", "pop": 0.2}}, {"type": "Feature", "geometry": {"type": "Point", "coordinates": [-83.216258, 41.104109]}, "properties": {"name": "Mercy Health - Tiffin Hospital", "city": "Tiffin", "state": "OH", "type": "Medical", "pop": 0.3}}, {"type": "Feature", "geometry": {"type": "Point", "coordinates": [-98.547528, 29.489828]}, "properties": {"name": "Methodist Hospital Texsan", "city": "San Antonio", "state": "TX", "type": "Medical", "pop": 0.9}}, {"type": "Feature", "geometry": {"type": "Point", "coordinates": [-80.154961, 25.919958]}, "properties": {"name": "Miami (Miramar) Hold Room", "city": "Miami", "state": "FL", "type": "Hold/Staging", "pop": 35.7}}, {"type": "Feature", "geometry": {"type": "Point", "coordinates": [-102.076911, 31.993732]}, "properties": {"name": "Midland Detention Center", "city": "Midland", "state": "TX", "type": "Federal", "pop": 0.1}}, {"type": "Feature", "geometry": {"type": "Point", "coordinates": [-87.907819, 43.047503]}, "properties": {"name": "Milwaukee Holdroom", "city": "Milwaukee", "state": "WI", "type": "Hold/Staging", "pop": 3.7}}, {"type": "Feature", "geometry": {"type": "Point", "coordinates": [-94.022708, 33.399801]}, "properties": {"name": "Miller County Jail", "city": "Texarkana", "state": "AR", "type": "Federal", "pop": 5.1}}, {"type": "Feature", "geometry": {"type": "Point", "coordinates": [-113.791809, 42.53528]}, "properties": {"name": "Minicassia Det. Center", "city": "Burley", "state": "ID", "type": "Non-Dedicated", "pop": 2.9}}, {"type": "Feature", "geometry": {"type": "Point", "coordinates": [-96.728557, 43.57846]}, "properties": {"name": "Minnehaha County Jail", "city": "Sioux Falls", "state": "SD", "type": "Federal", "pop": 7.8}}, {"type": "Feature", "geometry": {"type": "Point", "coordinates": [-102.074372, 31.994252]}, "properties": {"name": "Midland, TX ERO Holdroom", "city": "Midland", "state": "TX", "type": "Hold/Staging", "pop": 1.4}}, {"type": "Feature", "geometry": {"type": "Point", "coordinates": [-74.9575, 39.93288]}, "properties": {"name": "Mount Laurel Hold Room", "city": "Mount Laurel", "state": "NJ", "type": "Hold/Staging", "pop": 8.2}}, {"type": "Feature", "geometry": {"type": "Point", "coordinates": [-88.041554, 30.695111]}, "properties": {"name": "Mobile Holdroom", "city": "Mobile", "state": "AL", "type": "Hold/Staging", "pop": 3.8}}, {"type": "Feature", "geometry": {"type": "Point", "coordinates": [-81.751524, 24.577137]}, "properties": {"name": "Monroe County Jail", "city": "Key West", "state": "FL", "type": "Non-Dedicated", "pop": 0.1}}, {"type": "Feature", "geometry": {"type": "Point", "coordinates": [-83.394064, 41.893515]}, "properties": {"name": "Monroe County Detention-Dorm", "city": "Monroe", "state": "MI", "type": "Non-Dedicated", "pop": 122.6}}, {"type": "Feature", "geometry": {"type": "Point", "coordinates": [-74.374064, 42.952984]}, "properties": {"name": "Montgomery County Jail", "city": "Fonda", "state": "NY", "type": "Non-Dedicated", "pop": 6.7}}, {"type": "Feature", "geometry": {"type": "Point", "coordinates": [145.703679, 15.156223]}, "properties": {"name": "Saipan Department Of Corrections", "city": "Saipan", "state": "MP", "type": "Federal", "pop": 22.1}}, {"type": "Feature", "geometry": {"type": "Point", "coordinates": [-120.413661, 34.951752]}, "properties": {"name": "Marian Regional Medical Center", "city": "Santa Maria", "state": "CA", "type": "Medical", "pop": 0.1}}, {"type": "Feature", "geometry": {"type": "Point", "coordinates": [-90.381379, 38.510527]}, "properties": {"name": "Mercy Hospital South", "city": "Saint Louis", "state": "MO", "type": "Medical", "pop": 0.2}}, {"type": "Feature", "geometry": {"type": "Point", "coordinates": [-80.193132, 25.778461]}, "properties": {"name": "Miami Staging Facility", "city": "Miami", "state": "FL", "type": "Hold/Staging", "pop": 26.3}}, {"type": "Feature", "geometry": {"type": "Point", "coordinates": [-98.576718, 29.513516]}, "properties": {"name": "Methodist Specialty Transplant Hos", "city": "San Antonio", "state": "TX", "type": "Medical", "pop": 0.1}}, {"type": "Feature", "geometry": {"type": "Point", "coordinates": [-78.240515, 40.920042]}, "properties": {"name": "Moshannon Valley Processing Center", "city": "Philipsburg", "state": "PA", "type": "Dedicated", "pop": 1547.0}}, {"type": "Feature", "geometry": {"type": "Point", "coordinates": [-95.449219, 30.344436]}, "properties": {"name": "Montgomery Hold Rm", "city": "Conroe", "state": "TX", "type": "Hold/Staging", "pop": 79.4}}, {"type": "Feature", "geometry": {"type": "Point", "coordinates": [-95.44922, 30.34444]}, "properties": {"name": "Montgomery Processing Ctr", "city": "Conroe", "state": "TX", "type": "Dedicated", "pop": 1199.9}}, {"type": "Feature", "geometry": {"type": "Point", "coordinates": [-91.044666, 41.424355]}, "properties": {"name": "Muscatine County Jail", "city": "Muscatine", "state": "IA", "type": "Federal", "pop": 19.5}}, {"type": "Feature", "geometry": {"type": "Point", "coordinates": [-111.609914, 33.391004]}, "properties": {"name": "Mountain Vista Med Ctr", "city": "Mesa", "state": "AZ", "type": "Medical", "pop": 0.2}}, {"type": "Feature", "geometry": {"type": "Point", "coordinates": [-73.556165, 40.727807]}, "properties": {"name": "Nassau Co Correc Center", "city": "East Meadow", "state": "NY", "type": "Non-Dedicated", "pop": 2.3}}, {"type": "Feature", "geometry": {"type": "Point", "coordinates": [-73.553488, 40.73227]}, "properties": {"name": "Nassau County ICE Trailer", "city": "East Meadow", "state": "NY", "type": "Other/Unknown", "pop": 1.2}}, {"type": "Feature", "geometry": {"type": "Point", "coordinates": [-106.345052, 42.862257]}, "properties": {"name": "Natrona County Jail", "city": "Casper", "state": "WY", "type": "Federal", "pop": 20.9}}, {"type": "Feature", "geometry": {"type": "Point", "coordinates": [-74.111023, 41.515748]}, "properties": {"name": "Newburgh Holding", "city": "Newburgh", "state": "NY", "type": "Hold/Staging", "pop": 2.2}}, {"type": "Feature", "geometry": {"type": "Point", "coordinates": [-80.098638, 26.275409]}, "properties": {"name": "North Broward Medical Center", "city": "Pompano Beach", "state": "FL", "type": "Medical", "pop": 0.5}}, {"type": "Feature", "geometry": {"type": "Point", "coordinates": [-74.174986, 40.730364]}, "properties": {"name": "New/INS Os Hold Room", "city": "Newark", "state": "NJ", "type": "Hold/Staging", "pop": 0.1}}, {"type": "Feature", "geometry": {"type": "Point", "coordinates": [-78.735648, 43.180452]}, "properties": {"name": "Niagara County Jail", "city": "Lockport", "state": "NY", "type": "Non-Dedicated", "pop": 8.1}}, {"type": "Feature", "geometry": {"type": "Point", "coordinates": [-90.502321, 29.992572]}, "properties": {"name": "Nelson Coleman Corrections Center", "city": "Killona", "state": "LA", "type": "Other/Unknown", "pop": 5.8}}, {"type": "Feature", "geometry": {"type": "Point", "coordinates": [-90.077862, 29.948091]}, "properties": {"name": "Nol D D & P", "city": "New Orleans", "state": "LA", "type": "Hold/Staging", "pop": 0.9}}, {"type": "Feature", "geometry": {"type": "Point", "coordinates": [-76.22287, 36.876164]}, "properties": {"name": "Norfolk Sub-Office Hold", "city": "Norfolk", "state": "VA", "type": "Hold/Staging", "pop": 3.8}}, {"type": "Feature", "geometry": {"type": "Point", "coordinates": [-78.145078, 39.199842]}, "properties": {"name": "NW Reg Juv Det Ctr", "city": "Winchester", "state": "VA", "type": "Other/Unknown", "pop": 3.4}}, {"type": "Feature", "geometry": {"type": "Point", "coordinates": [-85.839408, 43.928658]}, "properties": {"name": "North Lake Correctional Facility", "city": "Baldwin", "state": "MI", "type": "Dedicated", "pop": 1097.0}}, {"type": "Feature", "geometry": {"type": "Point", "coordinates": [-86.779278, 36.167759]}, "properties": {"name": "Nashville Hold Room", "city": "Nashville", "state": "TN", "type": "Hold/Staging", "pop": 2.1}}, {"type": "Feature", "geometry": {"type": "Point", "coordinates": [-73.554062, 40.727216]}, "properties": {"name": "Nassau Univ Med Ctr", "city": "East Meadow", "state": "NY", "type": "Medical", "pop": 0.1}}, {"type": "Feature", "geometry": {"type": "Point", "coordinates": [-115.982775, 36.249027]}, "properties": {"name": "Nevada Southern Detention Center", "city": "Pahrump", "state": "NV", "type": "Federal", "pop": 443.4}}, {"type": "Feature", "geometry": {"type": "Point", "coordinates": [-77.895749, 34.327352]}, "properties": {"name": "New Hanover Co Det Center", "city": "Castle Hayne", "state": "NC", "type": "Non-Dedicated", "pop": 2.0}}, {"type": "Feature", "geometry": {"type": "Point", "coordinates": [-96.62859, 47.768832]}, "properties": {"name": "NW Regional Corrections Center", "city": "Crookston", "state": "MN", "type": "Federal", "pop": 9.7}}, {"type": "Feature", "geometry": {"type": "Point", "coordinates": [-78.146302, 39.198506]}, "properties": {"name": "Northwest Reg. Adult Det.", "city": "Winchester", "state": "VA", "type": "Non-Dedicated", "pop": 0.4}}, {"type": "Feature", "geometry": {"type": "Point", "coordinates": [-74.003839, 40.715422]}, "properties": {"name": "Nyc Hold Room", "city": "New York", "state": "NY", "type": "Hold/Staging", "pop": 32.8}}, {"type": "Feature", "geometry": {"type": "Point", "coordinates": [-92.63684, 30.832183]}, "properties": {"name": "Oakdale Holding Room", "city": "Oakdale", "state": "LA", "type": "Hold/Staging", "pop": 4.7}}, {"type": "Feature", "geometry": {"type": "Point", "coordinates": [-117.833027, 33.753944]}, "properties": {"name": "Orange Co Global Medical Center", "city": "Santa Ana", "state": "CA", "type": "Medical", "pop": 0.2}}, {"type": "Feature", "geometry": {"type": "Point", "coordinates": [-74.368094, 41.441918]}, "properties": {"name": "Orange Regional Med Ctr", "city": "Middletown", "state": "NY", "type": "Medical", "pop": 0.1}}, {"type": "Feature", "geometry": {"type": "Point", "coordinates": [-112.018854, 41.220537]}, "properties": {"name": "Ogden Hold Room", "city": "Ogden", "state": "UT", "type": "Hold/Staging", "pop": 0.8}}, {"type": "Feature", "geometry": {"type": "Point", "coordinates": [-84.357211, 41.458755]}, "properties": {"name": "Corrections Center of NW Ohio", "city": "Stryker", "state": "OH", "type": "Federal", "pop": 64.2}}, {"type": "Feature", "geometry": {"type": "Point", "coordinates": [-97.596734, 35.42402]}, "properties": {"name": "Oklahoma City Hold Room.", "city": "Oklahoma City", "state": "OK", "type": "Hold/Staging", "pop": 16.7}}, {"type": "Feature", "geometry": {"type": "Point", "coordinates": [-96.76697, 35.985064]}, "properties": {"name": "Cimarron Correctional Facility", "city": "Cushing", "state": "OK", "type": "Federal", "pop": 550.3}}, {"type": "Feature", "geometry": {"type": "Point", "coordinates": [-97.878198, 28.850774]}, "properties": {"name": "Otto Kaiser Memorial Hospital", "city": "Kenedy", "state": "TX", "type": "Medical", "pop": 0.1}}, {"type": "Feature", "geometry": {"type": "Point", "coordinates": [-85.38084, 38.407136]}, "properties": {"name": "Oldham County Jail", "city": "La Grange", "state": "KY", "type": "Federal", "pop": 125.8}}, {"type": "Feature", "geometry": {"type": "Point", "coordinates": [-95.898764, 41.281294]}, "properties": {"name": "Omaha FO Hold", "city": "Omaha", "state": "NE", "type": "Hold/Staging", "pop": 12.2}}, {"type": "Feature", "geometry": {"type": "Point", "coordinates": [-81.416405, 28.503812]}, "properties": {"name": "Orange County Jail", "city": "Orlando", "state": "FL", "type": "Federal", "pop": 28.2}}, {"type": "Feature", "geometry": {"type": "Point", "coordinates": [-74.357459, 41.404669]}, "properties": {"name": "Orange County Jail", "city": "Goshen", "state": "NY", "type": "Non-Dedicated", "pop": 165.9}}, {"type": "Feature", "geometry": {"type": "Point", "coordinates": [-81.333814, 28.427496]}, "properties": {"name": "Orlando Hold Room", "city": "Orlando", "state": "FL", "type": "Hold/Staging", "pop": 26.2}}, {"type": "Feature", "geometry": {"type": "Point", "coordinates": [-81.35229, 28.295161]}, "properties": {"name": "Osceola County Jail", "city": "Kissimmee", "state": "FL", "type": "Other/Unknown", "pop": 3.0}}, {"type": "Feature", "geometry": {"type": "Point", "coordinates": [-106.28262, 32.08042]}, "properties": {"name": "Otero Co Processing Center", "city": "Chaparral", "state": "NM", "type": "Dedicated", "pop": 913.9}}, {"type": "Feature", "geometry": {"type": "Point", "coordinates": [-92.449069, 36.599931]}, "properties": {"name": "Ozark County Sheriff'S Office", "city": "Gainesville", "state": "MO", "type": "Non-Dedicated", "pop": 16.4}}, {"type": "Feature", "geometry": {"type": "Point", "coordinates": [-88.095969, 33.260415]}, "properties": {"name": "Pickens County Det Ctr", "city": "Carrollton", "state": "AL", "type": "Non-Dedicated", "pop": 33.1}}, {"type": "Feature", "geometry": {"type": "Point", "coordinates": [-103.521451, 31.398176]}, "properties": {"name": "Pecos Hold Room", "city": "Pecos", "state": "TX", "type": "Hold/Staging", "pop": 0.7}}, {"type": "Feature", "geometry": {"type": "Point", "coordinates": [-103.221024, 44.078928]}, "properties": {"name": "Pennington County Jail SD", "city": "Rapid City", "state": "SD", "type": "Federal", "pop": 1.3}}, {"type": "Feature", "geometry": {"type": "Point", "coordinates": [-91.775053, 37.945714]}, "properties": {"name": "Phelps County Jail", "city": "Rolla", "state": "MO", "type": "Federal", "pop": 9.3}}, {"type": "Feature", "geometry": {"type": "Point", "coordinates": [-99.370401, 40.439047]}, "properties": {"name": "Phelps County Jail", "city": "Holdrege", "state": "NE", "type": "Federal", "pop": 31.4}}, {"type": "Feature", "geometry": {"type": "Point", "coordinates": [-75.16547, 39.95995]}, "properties": {"name": "Phi District Office", "city": "Philadelphia", "state": "PA", "type": "Hold/Staging", "pop": 13.2}}, {"type": "Feature", "geometry": {"type": "Point", "coordinates": [-112.07309, 33.470785]}, "properties": {"name": "Phoenix Dist Office", "city": "Phoenix", "state": "AZ", "type": "Hold/Staging", "pop": 36.9}}, {"type": "Feature", "geometry": {"type": "Point", "coordinates": [-97.35047, 26.157941]}, "properties": {"name": "Port Isabel SPC", "city": "Los Fresnos", "state": "TX", "type": "Dedicated", "pop": 1076.3}}, {"type": "Feature", "geometry": {"type": "Point", "coordinates": [-75.071465, 41.38881]}, "properties": {"name": "Pike County Jail", "city": "Lords Valley", "state": "PA", "type": "Non-Dedicated", "pop": 229.4}}, {"type": "Feature", "geometry": {"type": "Point", "coordinates": [-82.706199, 27.901529]}, "properties": {"name": "Pinellas County Jail", "city": "Clearwater", "state": "FL", "type": "Federal", "pop": 53.0}}, {"type": "Feature", "geometry": {"type": "Point", "coordinates": [-92.413408, 30.788073]}, "properties": {"name": "Pine Prairie ICE Processing Center", "city": "Pine Prairie", "state": "LA", "type": "Dedicated", "pop": 965.5}}, {"type": "Feature", "geometry": {"type": "Point", "coordinates": [-79.960811, 40.424825]}, "properties": {"name": "Pittsburgh Holdroom", "city": "Pittsburgh", "state": "PA", "type": "Hold/Staging", "pop": 2.9}}, {"type": "Feature", "geometry": {"type": "Point", "coordinates": [-75.072108, 41.388359]}, "properties": {"name": "Pike County ERO Hold Room", "city": "Hawley", "state": "PA", "type": "Hold/Staging", "pop": 1.9}}, {"type": "Feature", "geometry": {"type": "Point", "coordinates": [-104.952706, 42.055382]}, "properties": {"name": "Platte County Jail", "city": "Wheatland", "state": "WY", "type": "Federal", "pop": 4.7}}, {"type": "Feature", "geometry": {"type": "Point", "coordinates": [-70.651299, 41.931808]}, "properties": {"name": "Plymouth Co Cor Facilty", "city": "Plymouth", "state": "MA", "type": "Non-Dedicated", "pop": 474.1}}, {"type": "Feature", "geometry": {"type": "Point", "coordinates": [-95.005792, 30.698151]}, "properties": {"name": "IAH Secure Adult Det. Facility", "city": "Livingston", "state": "TX", "type": "Non-Dedicated", "pop": 848.3}}, {"type": "Feature", "geometry": {"type": "Point", "coordinates": [-81.819138, 27.882109]}, "properties": {"name": "Polk County Jail", "city": "Bartow", "state": "FL", "type": "Non-Dedicated", "pop": 1.0}}, {"type": "Feature", "geometry": {"type": "Point", "coordinates": [-93.587813, 41.653605]}, "properties": {"name": "Polk County Jail", "city": "Des Moines", "state": "IA", "type": "Federal", "pop": 52.9}}, {"type": "Feature", "geometry": {"type": "Point", "coordinates": [-70.250042, 43.634917]}, "properties": {"name": "Portland, ME Holdroom", "city": "Portland", "state": "ME", "type": "Hold/Staging", "pop": 0.1}}, {"type": "Feature", "geometry": {"type": "Point", "coordinates": [-122.676329, 45.515096]}, "properties": {"name": "Portland District Office", "city": "Portland", "state": "OR", "type": "Hold/Staging", "pop": 5.6}}, {"type": "Feature", "geometry": {"type": "Point", "coordinates": [-95.867184, 41.281836]}, "properties": {"name": "Pottawattamie County Jail", "city": "Council Bluffs", "state": "IA", "type": "Federal", "pop": 38.0}}, {"type": "Feature", "geometry": {"type": "Point", "coordinates": [-73.933062, 40.849412]}, "properties": {"name": "New York Presbyterian Hospital", "city": "Unknown", "state": "NY", "type": "Medical", "pop": 2.1}}, {"type": "Feature", "geometry": {"type": "Point", "coordinates": [-97.196902, 32.420785]}, "properties": {"name": "Prairieland Detention Center", "city": "Alvarado", "state": "TX", "type": "Dedicated", "pop": 920.5}}, {"type": "Feature", "geometry": {"type": "Point", "coordinates": [-97.196902, 32.420785]}, "properties": {"name": "Prairieland Suboffice Hold Room", "city": "Alvarado", "state": "TX", "type": "Hold/Staging", "pop": 25.9}}, {"type": "Feature", "geometry": {"type": "Point", "coordinates": [-71.457116, 41.726973]}, "properties": {"name": "Providence Holdroom", "city": "Warwick", "state": "RI", "type": "Hold/Staging", "pop": 2.5}}, {"type": "Feature", "geometry": {"type": "Point", "coordinates": [-111.659712, 40.148962]}, "properties": {"name": "Provo Hold Room", "city": "Spanish Fork", "state": "UT", "type": "Hold/Staging", "pop": 2.7}}, {"type": "Feature", "geometry": {"type": "Point", "coordinates": [-105.116869, 38.393003]}, "properties": {"name": "Pueblo Holdroom", "city": "Florence", "state": "CO", "type": "Hold/Staging", "pop": 0.5}}, {"type": "Feature", "geometry": {"type": "Point", "coordinates": [-85.497892, 36.161463]}, "properties": {"name": "Putnam County Sheriff", "city": "Cookeville", "state": "TN", "type": "Federal", "pop": 24.1}}, {"type": "Feature", "geometry": {"type": "Point", "coordinates": [-117.082074, 32.685367]}, "properties": {"name": "Paradise Valley Hospital", "city": "National City", "state": "CA", "type": "Medical", "pop": 1.7}}, {"type": "Feature", "geometry": {"type": "Point", "coordinates": [-77.477759, 38.751908]}, "properties": {"name": "Prince William", "city": "Manassas", "state": "VA", "type": "Federal", "pop": 0.1}}, {"type": "Feature", "geometry": {"type": "Point", "coordinates": [-84.320068, 33.440609]}, "properties": {"name": "Robert A Deyton Detention Fac", "city": "Lovejoy", "state": "GA", "type": "Federal", "pop": 1.1}}, {"type": "Feature", "geometry": {"type": "Point", "coordinates": [-77.471987, 38.318495]}, "properties": {"name": "Rapp Sec Center", "city": "Stafford", "state": "VA", "type": "Federal", "pop": 1.7}}, {"type": "Feature", "geometry": {"type": "Point", "coordinates": [-77.433933, 37.542324]}, "properties": {"name": "Richmond Sub-Office Hold", "city": "Richmond", "state": "VA", "type": "Hold/Staging", "pop": 36.1}}, {"type": "Feature", "geometry": {"type": "Point", "coordinates": [-78.779608, 35.789744]}, "properties": {"name": "Raleigh Hold Room", "city": "Cary", "state": "NC", "type": "Hold/Staging", "pop": 5.9}}, {"type": "Feature", "geometry": {"type": "Point", "coordinates": [-122.362639, 40.575012]}, "properties": {"name": "Redding Hold Room", "city": "Redding", "state": "CA", "type": "Hold/Staging", "pop": 0.6}}, {"type": "Feature", "geometry": {"type": "Point", "coordinates": [-119.80945, 39.572905]}, "properties": {"name": "Reno Hold Room", "city": "Reno", "state": "NV", "type": "Hold/Staging", "pop": 1.0}}, {"type": "Feature", "geometry": {"type": "Point", "coordinates": [-99.489677, 27.377813]}, "properties": {"name": "Rio Grande Detention Center", "city": "Laredo", "state": "TX", "type": "Federal", "pop": 540.5}}, {"type": "Feature", "geometry": {"type": "Point", "coordinates": [-97.35047, 26.157941]}, "properties": {"name": "Rio Grande Valley Staging", "city": "Los Fresnos", "state": "TX", "type": "Hold/Staging", "pop": 3.1}}, {"type": "Feature", "geometry": {"type": "Point", "coordinates": [-119.27602, 46.277514]}, "properties": {"name": "Richland Hold Room", "city": "Richland", "state": "WA", "type": "Hold/Staging", "pop": 0.3}}, {"type": "Feature", "geometry": {"type": "Point", "coordinates": [-90.580731, 41.509186]}, "properties": {"name": "Rock Island Hold Room", "city": "Rock Island", "state": "IL", "type": "Hold/Staging", "pop": 0.7}}, {"type": "Feature", "geometry": {"type": "Point", "coordinates": [-80.061161, 37.2926]}, "properties": {"name": "Roanoke Sub-Office Hold Room", "city": "Salem", "state": "VA", "type": "Hold/Staging", "pop": 0.7}}, {"type": "Feature", "geometry": {"type": "Point", "coordinates": [-78.870468, 38.449565]}, "properties": {"name": "Rockingham Co. Jail", "city": "Harrisonburg", "state": "VA", "type": "Federal", "pop": 3.7}}, {"type": "Feature", "geometry": {"type": "Point", "coordinates": [-79.947238, 37.271388]}, "properties": {"name": "Roanoke City Jail", "city": "Roanoke", "state": "VA", "type": "Federal", "pop": 0.5}}, {"type": "Feature", "geometry": {"type": "Point", "coordinates": [-103.264685, 44.099197]}, "properties": {"name": "Rapid City Hold Room", "city": "Rapid City", "state": "SD", "type": "Hold/Staging", "pop": 0.3}}, {"type": "Feature", "geometry": {"type": "Point", "coordinates": [-77.321437, 37.295038]}, "properties": {"name": "Riverside Reg Jail", "city": "Hopewell", "state": "VA", "type": "Federal", "pop": 136.6}}, {"type": "Feature", "geometry": {"type": "Point", "coordinates": [-104.524837, 33.398085]}, "properties": {"name": "Roswell Hold Room", "city": "Roswell", "state": "NM", "type": "Hold/Staging", "pop": 3.0}}, {"type": "Feature", "geometry": {"type": "Point", "coordinates": [-106.574609, 31.879834]}, "properties": {"name": "Rio Vista Behv Hlth Hsp", "city": "El Paso", "state": "TX", "type": "Medical", "pop": 12.1}}, {"type": "Feature", "geometry": {"type": "Point", "coordinates": [-91.571045, 31.60661]}, "properties": {"name": "River Correctional Center", "city": "Ferriday", "state": "LA", "type": "Dedicated", "pop": 581.0}}, {"type": "Feature", "geometry": {"type": "Point", "coordinates": [-92.087402, 32.463426]}, "properties": {"name": "Richwood Cor Center", "city": "Monroe", "state": "LA", "type": "Dedicated", "pop": 1080.0}}, {"type": "Feature", "geometry": {"type": "Point", "coordinates": [-117.875155, 33.748562]}, "properties": {"name": "Santa Ana DRO Holdroom", "city": "Santa Ana", "state": "CA", "type": "Hold/Staging", "pop": 15.8}}, {"type": "Feature", "geometry": {"type": "Point", "coordinates": [-121.499567, 38.578139]}, "properties": {"name": "Sacramento Hold", "city": "Sacramento", "state": "CA", "type": "Hold/Staging", "pop": 2.5}}, {"type": "Feature", "geometry": {"type": "Point", "coordinates": [-100.464032, 31.421951]}, "properties": {"name": "San Angelo Holdroom", "city": "San Angelo", "state": "TX", "type": "Hold/Staging", "pop": 3.2}}, {"type": "Feature", "geometry": {"type": "Point", "coordinates": [-66.106714, 18.406539]}, "properties": {"name": "DHS/ICE/DRO", "city": "Guaynabo", "state": "PR", "type": "Hold/Staging", "pop": 0.4}}, {"type": "Feature", "geometry": {"type": "Point", "coordinates": [-75.356102, 39.614489]}, "properties": {"name": "Salem County Correctional Facility", "city": "Woodstown", "state": "NJ", "type": "Federal", "pop": 0.3}}, {"type": "Feature", "geometry": {"type": "Point", "coordinates": [-75.571609, 38.410507]}, "properties": {"name": "Salisbury Hold Room", "city": "Salisbury", "state": "MD", "type": "Hold/Staging", "pop": 2.5}}, {"type": "Feature", "geometry": {"type": "Point", "coordinates": [-82.529789, 27.336241]}, "properties": {"name": "Sarasota County Jail", "city": "Sarasota", "state": "FL", "type": "Non-Dedicated", "pop": 2.1}}, {"type": "Feature", "geometry": {"type": "Point", "coordinates": [-96.041711, 41.143188]}, "properties": {"name": "Sarpy County Jail", "city": "Papillion", "state": "NE", "type": "Non-Dedicated", "pop": 18.5}}, {"type": "Feature", "geometry": {"type": "Point", "coordinates": [-89.766698, 43.461426]}, "properties": {"name": "Sauk County Sheriff", "city": "Baraboo", "state": "WI", "type": "Other/Unknown", "pop": 16.2}}, {"type": "Feature", "geometry": {"type": "Point", "coordinates": [-117.297624, 34.10077]}, "properties": {"name": "San Bernadino Hold Room", "city": "San Bernardino", "state": "CA", "type": "Hold/Staging", "pop": 9.3}}, {"type": "Feature", "geometry": {"type": "Point", "coordinates": [-90.57943, 41.524037]}, "properties": {"name": "Scott County Det.Facility", "city": "Davenport", "state": "IA", "type": "Federal", "pop": 1.4}}, {"type": "Feature", "geometry": {"type": "Point", "coordinates": [-122.291143, 47.490701]}, "properties": {"name": "Seattle Field Office Hold Room", "city": "Seattle", "state": "WA", "type": "Hold/Staging", "pop": 5.2}}, {"type": "Feature", "geometry": {"type": "Point", "coordinates": [-94.425111, 35.382833]}, "properties": {"name": "Sebastian County Det Cnt", "city": "Fort Smith", "state": "AR", "type": "Federal", "pop": 2.5}}, {"type": "Feature", "geometry": {"type": "Point", "coordinates": [-83.153682, 41.079514]}, "properties": {"name": "Seneca County Jail", "city": "Tiffin", "state": "OH", "type": "Non-Dedicated", "pop": 62.6}}, {"type": "Feature", "geometry": {"type": "Point", "coordinates": [-96.72369, 43.548712]}, "properties": {"name": "Sioux Falls Hold Room", "city": "Sioux Falls", "state": "SD", "type": "Hold/Staging", "pop": 0.4}}, {"type": "Feature", "geometry": {"type": "Point", "coordinates": [-122.401505, 37.796309]}, "properties": {"name": "SFR Hold Room", "city": "San Francisco", "state": "CA", "type": "Hold/Staging", "pop": 21.0}}, {"type": "Feature", "geometry": {"type": "Point", "coordinates": [-113.579872, 37.112707]}, "properties": {"name": "St. George, UT Holdroom", "city": "Saint George", "state": "UT", "type": "Hold/Staging", "pop": 0.1}}, {"type": "Feature", "geometry": {"type": "Point", "coordinates": [-93.619191, 45.304329]}, "properties": {"name": "Sherburne County Jail", "city": "Elk River", "state": "MN", "type": "Non-Dedicated", "pop": 107.0}}, {"type": "Feature", "geometry": {"type": "Point", "coordinates": [-96.076873, 43.019269]}, "properties": {"name": "Sioux County Jail", "city": "Orange City", "state": "IA", "type": "Federal", "pop": 9.7}}, {"type": "Feature", "geometry": {"type": "Point", "coordinates": [-66.114827, 18.423358]}, "properties": {"name": "San Juan Staging", "city": "Guaynabo", "state": "PR", "type": "Hold/Staging", "pop": 27.0}}, {"type": "Feature", "geometry": {"type": "Point", "coordinates": [-66.004703, 18.437531]}, "properties": {"name": "San Juan Airport Hold Room", "city": "San Juan", "state": "PR", "type": "Hold/Staging", "pop": 1.3}}, {"type": "Feature", "geometry": {"type": "Point", "coordinates": [-111.961248, 40.684576]}, "properties": {"name": "Salt Lake City Hold Room", "city": "West Valley City", "state": "UT", "type": "Hold/Staging", "pop": 20.1}}, {"type": "Feature", "geometry": {"type": "Point", "coordinates": [-114.778342, 32.49847]}, "properties": {"name": "San Luis Regional Det Center", "city": "San Luis", "state": "AZ", "type": "Non-Dedicated", "pop": 384.2}}, {"type": "Feature", "geometry": {"type": "Point", "coordinates": [-111.916777, 40.726239]}, "properties": {"name": "Salt Lake County Jail", "city": "Salt Lake City", "state": "UT", "type": "Federal", "pop": 1.3}}, {"type": "Feature", "geometry": {"type": "Point", "coordinates": [-120.444791, 34.918106]}, "properties": {"name": "Santa Maria Sub Office ERO", "city": "Santa Maria", "state": "CA", "type": "Other/Unknown", "pop": 4.0}}, {"type": "Feature", "geometry": {"type": "Point", "coordinates": [-81.300144, 28.74804]}, "properties": {"name": "Seminole County Jail", "city": "Sanford", "state": "FL", "type": "Other/Unknown", "pop": 1.0}}, {"type": "Feature", "geometry": {"type": "Point", "coordinates": [-98.391827, 29.522182]}, "properties": {"name": "San Antonio Dro Hold Room", "city": "San Antonio", "state": "TX", "type": "Hold/Staging", "pop": 33.9}}, {"type": "Feature", "geometry": {"type": "Point", "coordinates": [-116.921245, 32.590171]}, "properties": {"name": "San Diego County Jail", "city": "San Diego", "state": "CA", "type": "Non-Dedicated", "pop": 1.0}}, {"type": "Feature", "geometry": {"type": "Point", "coordinates": [-117.165183, 32.717307]}, "properties": {"name": "SND District Staging", "city": "San Diego", "state": "CA", "type": "Hold/Staging", "pop": 37.9}}, {"type": "Feature", "geometry": {"type": "Point", "coordinates": [-93.129413, 37.266958]}, "properties": {"name": "Springfield Dro Hold", "city": "Strafford", "state": "MO", "type": "Hold/Staging", "pop": 5.3}}, {"type": "Feature", "geometry": {"type": "Point", "coordinates": [-93.230675, 44.860123]}, "properties": {"name": "US INS/Detention & Deportation", "city": "Bloomington", "state": "MN", "type": "Hold/Staging", "pop": 21.6}}, {"type": "Feature", "geometry": {"type": "Point", "coordinates": [-117.418183, 47.66582]}, "properties": {"name": "Spokane Hold Room", "city": "Spokane", "state": "WA", "type": "Hold/Staging", "pop": 4.0}}, {"type": "Feature", "geometry": {"type": "Point", "coordinates": [-73.240524, 40.725611]}, "properties": {"name": "Southside Hosp Northwell Hlth", "city": "Bay Shore", "state": "NY", "type": "Medical", "pop": 0.1}}, {"type": "Feature", "geometry": {"type": "Point", "coordinates": [-99.121943, 28.894651]}, "properties": {"name": "South Texas ICE Processing Center", "city": "Pearsall", "state": "TX", "type": "Dedicated", "pop": 1783.8}}, {"type": "Feature", "geometry": {"type": "Point", "coordinates": [-82.481242, 42.94196]}, "properties": {"name": "St. Clair County Jail", "city": "Port Huron", "state": "MI", "type": "Non-Dedicated", "pop": 38.9}}, {"type": "Feature", "geometry": {"type": "Point", "coordinates": [-99.121238, 28.895232]}, "properties": {"name": "South Texas/Pearsall Hold Room", "city": "Pearsall", "state": "TX", "type": "Hold/Staging", "pop": 19.9}}, {"type": "Feature", "geometry": {"type": "Point", "coordinates": [-99.200575, 28.658051]}, "properties": {"name": "South Texas Fam Residential Center", "city": "Dilley", "state": "TX", "type": "Family/Youth", "pop": 450.3}}, {"type": "Feature", "geometry": {"type": "Point", "coordinates": [-90.055775, 37.965948]}, "properties": {"name": "Ste. Genevieve County Sheriff/Jail", "city": "Ste. Genevieve", "state": "MO", "type": "Federal", "pop": 103.1}}, {"type": "Feature", "geometry": {"type": "Point", "coordinates": [-122.448, 47.245494]}, "properties": {"name": "St Joseph Medical Center", "city": "Tacoma", "state": "WA", "type": "Medical", "pop": 2.5}}, {"type": "Feature", "geometry": {"type": "Point", "coordinates": [-121.289949, 37.951128]}, "properties": {"name": "Stockton Staging Facility", "city": "Stockton", "state": "CA", "type": "Hold/Staging", "pop": 3.3}}, {"type": "Feature", "geometry": {"type": "Point", "coordinates": [-90.19991, 38.624318]}, "properties": {"name": "St. Louis Holdroom", "city": "St. Louis", "state": "MO", "type": "Hold/Staging", "pop": 4.5}}, {"type": "Feature", "geometry": {"type": "Point", "coordinates": [-117.264687, 34.540401]}, "properties": {"name": "St Mary Medical Center", "city": "Apple Valley", "state": "CA", "type": "Medical", "pop": 1.7}}, {"type": "Feature", "geometry": {"type": "Point", "coordinates": [-70.938608, 43.21923]}, "properties": {"name": "Strafford Co Dept Of Corr", "city": "Dover", "state": "NH", "type": "Non-Dedicated", "pop": 117.5}}, {"type": "Feature", "geometry": {"type": "Point", "coordinates": [-80.212243, 27.155589]}, "properties": {"name": "Stuart Hold Room", "city": "Stuart", "state": "FL", "type": "Hold/Staging", "pop": 16.9}}, {"type": "Feature", "geometry": {"type": "Point", "coordinates": [-84.771746, 32.036676]}, "properties": {"name": "Stewart Detention Center", "city": "Lumpkin", "state": "GA", "type": "Dedicated", "pop": 2085.1}}, {"type": "Feature", "geometry": {"type": "Point", "coordinates": [-72.670754, 40.914484]}, "properties": {"name": "Suffolk Co.Correc Fac", "city": "Riverhead", "state": "NY", "type": "Federal", "pop": 1.0}}, {"type": "Feature", "geometry": {"type": "Point", "coordinates": [-109.301349, 41.537427]}, "properties": {"name": "Sweetwater County Jail", "city": "Rock Springs", "state": "WY", "type": "Federal", "pop": 9.9}}, {"type": "Feature", "geometry": {"type": "Point", "coordinates": [-76.123955, 43.111676]}, "properties": {"name": "Syracuse Hold Room", "city": "N Syracuse", "state": "NY", "type": "Hold/Staging", "pop": 1.7}}, {"type": "Feature", "geometry": {"type": "Point", "coordinates": [-84.354361, 30.471947]}, "properties": {"name": "Tallahassee Hold Room", "city": "Tallahassee", "state": "FL", "type": "Hold/Staging", "pop": 14.4}}, {"type": "Feature", "geometry": {"type": "Point", "coordinates": [-82.372276, 27.959412]}, "properties": {"name": "Tampa Hold Room", "city": "Tampa", "state": "FL", "type": "Hold/Staging", "pop": 38.6}}, {"type": "Feature", "geometry": {"type": "Point", "coordinates": [-69.698928, 43.978502]}, "properties": {"name": "Two Bridges Regional Jail", "city": "Wiscasset", "state": "ME", "type": "Federal", "pop": 10.8}}, {"type": "Feature", "geometry": {"type": "Point", "coordinates": [-114.479099, 42.563122]}, "properties": {"name": "Twin Falls Hold Room", "city": "Twin Falls", "state": "ID", "type": "Hold/Staging", "pop": 1.9}}, {"type": "Feature", "geometry": {"type": "Point", "coordinates": [-80.311679, 25.810088]}, "properties": {"name": "Turner Guiford Knight (TGK) Jail", "city": "Miami", "state": "FL", "type": "Other/Unknown", "pop": 13.6}}, {"type": "Feature", "geometry": {"type": "Point", "coordinates": [-100.440089, 31.462845]}, "properties": {"name": "Tom Green Cty Jail", "city": "San Angelo", "state": "TX", "type": "Federal", "pop": 1.9}}, {"type": "Feature", "geometry": {"type": "Point", "coordinates": [-97.316894, 32.586731]}, "properties": {"name": "Tex Health Huguley Hosp", "city": "Burleson", "state": "TX", "type": "Medical", "pop": 0.1}}, {"type": "Feature", "geometry": {"type": "Point", "coordinates": [-97.338915, 32.735814]}, "properties": {"name": "TX Hlth Harris Meth Hosp", "city": "Fort Worth", "state": "TX", "type": "Medical", "pop": 0.3}}, {"type": "Feature", "geometry": {"type": "Point", "coordinates": [-106.480896, 31.777644]}, "properties": {"name": "THOP Sierra Campus Elp", "city": "El Paso", "state": "TX", "type": "Medical", "pop": 0.7}}, {"type": "Feature", "geometry": {"type": "Point", "coordinates": [-89.550034, 35.408822]}, "properties": {"name": "Western Tennessee Det. Fac.", "city": "Mason", "state": "TN", "type": "Federal", "pop": 32.4}}, {"type": "Feature", "geometry": {"type": "Point", "coordinates": [-112.298416, 40.53025]}, "properties": {"name": "Tooele County Jail", "city": "Tooele", "state": "UT", "type": "Federal", "pop": 13.8}}, {"type": "Feature", "geometry": {"type": "Point", "coordinates": [-106.018496, 34.767387]}, "properties": {"name": "Torrance/Estancia, NM", "city": "Estancia", "state": "NM", "type": "Non-Dedicated", "pop": 532.3}}, {"type": "Feature", "geometry": {"type": "Point", "coordinates": [-74.214218, 40.658568]}, "properties": {"name": "Trinitas Regional Med Ctr", "city": "Elizabeth", "state": "NJ", "type": "Medical", "pop": 0.9}}, {"type": "Feature", "geometry": {"type": "Point", "coordinates": [-110.926022, 32.135321]}, "properties": {"name": "Tucson INS Hold Room", "city": "Tucson", "state": "AZ", "type": "Hold/Staging", "pop": 2.8}}, {"type": "Feature", "geometry": {"type": "Point", "coordinates": [-95.999013, 36.157282]}, "properties": {"name": "Tulsa County Jail", "city": "Tulsa", "state": "OK", "type": "Non-Dedicated", "pop": 63.1}}, {"type": "Feature", "geometry": {"type": "Point", "coordinates": [-95.864309, 36.139538]}, "properties": {"name": "Tulsa Hold Room", "city": "Tulsa", "state": "OK", "type": "Hold/Staging", "pop": 3.7}}, {"type": "Feature", "geometry": {"type": "Point", "coordinates": [-94.043166, 33.420881]}, "properties": {"name": "Texarkana Holdroom", "city": "Texarkana", "state": "AR", "type": "Hold/Staging", "pop": 1.1}}, {"type": "Feature", "geometry": {"type": "Point", "coordinates": [-104.841405, 39.742491]}, "properties": {"name": "Uchealth Unv Hosp Of Co", "city": "Aurora", "state": "CO", "type": "Medical", "pop": 1.0}}, {"type": "Feature", "geometry": {"type": "Point", "coordinates": [-117.166135, 32.75427]}, "properties": {"name": "Unv California San Diego Hospital", "city": "San Diego", "state": "CA", "type": "Medical", "pop": 0.2}}, {"type": "Feature", "geometry": {"type": "Point", "coordinates": [-75.958203, 42.115178]}, "properties": {"name": "Uhs Wilson Medical Center", "city": "Johnson City", "state": "NY", "type": "Medical", "pop": 1.0}}, {"type": "Feature", "geometry": {"type": "Point", "coordinates": [-110.921048, 41.26898]}, "properties": {"name": "Uinta County Jail", "city": "Evanston", "state": "WY", "type": "Federal", "pop": 21.7}}, {"type": "Feature", "geometry": {"type": "Point", "coordinates": [-106.434949, 31.772345]}, "properties": {"name": "University Med Center of El Paso", "city": "El Paso", "state": "TX", "type": "Medical", "pop": 2.1}}, {"type": "Feature", "geometry": {"type": "Point", "coordinates": [-78.187517, 42.998116]}, "properties": {"name": "United Memorial Med Ctr", "city": "Batavia", "state": "NY", "type": "Medical", "pop": 0.1}}, {"type": "Feature", "geometry": {"type": "Point", "coordinates": [-74.190509, 40.741959]}, "properties": {"name": "University Hospital", "city": "Newark", "state": "NJ", "type": "Medical", "pop": 0.9}}, {"type": "Feature", "geometry": {"type": "Point", "coordinates": [-99.782787, 29.212368]}, "properties": {"name": "Uvalde County Jail", "city": "Uvalde", "state": "TX", "type": "Other/Unknown", "pop": 0.1}}, {"type": "Feature", "geometry": {"type": "Point", "coordinates": [-98.57766, 29.508424]}, "properties": {"name": "University Hospital", "city": "San Antonio", "state": "TX", "type": "Medical", "pop": 1.8}}, {"type": "Feature", "geometry": {"type": "Point", "coordinates": [-100.847867, 29.373265]}, "properties": {"name": "Val Verde Detention Center", "city": "Del Rio", "state": "TX", "type": "Federal", "pop": 10.2}}, {"type": "Feature", "geometry": {"type": "Point", "coordinates": [-97.670256, 26.175246]}, "properties": {"name": "Valley Baptist Hospital", "city": "Harlingen", "state": "TX", "type": "Medical", "pop": 8.9}}, {"type": "Feature", "geometry": {"type": "Point", "coordinates": [-119.077197, 34.206389]}, "properties": {"name": "Ventura Custody Case", "city": "Camarrillo", "state": "CA", "type": "Hold/Staging", "pop": 7.1}}, {"type": "Feature", "geometry": {"type": "Point", "coordinates": [-119.210784, 34.267558]}, "properties": {"name": "Ventura County Jail", "city": "Ventura", "state": "CA", "type": "Federal", "pop": 0.1}}, {"type": "Feature", "geometry": {"type": "Point", "coordinates": [-97.008605, 28.800291]}, "properties": {"name": "Victoria County Jail", "city": "Victoria", "state": "TX", "type": "Non-Dedicated", "pop": 14.0}}, {"type": "Feature", "geometry": {"type": "Point", "coordinates": [-76.060064, 36.753146]}, "properties": {"name": "Virginia Beach", "city": "Virginia Beach", "state": "VA", "type": "Non-Dedicated", "pop": 0.3}}, {"type": "Feature", "geometry": {"type": "Point", "coordinates": [-74.00627, 40.728291]}, "properties": {"name": "Varick Street SPC", "city": "New York", "state": "NY", "type": "Hold/Staging", "pop": 1.1}}, {"type": "Feature", "geometry": {"type": "Point", "coordinates": [-73.204592, 44.445907]}, "properties": {"name": "Chittenden Reg. Cor. Facility", "city": "South Burlington", "state": "VT", "type": "Non-Dedicated", "pop": 6.8}}, {"type": "Feature", "geometry": {"type": "Point", "coordinates": [-73.132435, 44.850138]}, "properties": {"name": "Northwest State Correctional Ctr.", "city": "Swanton", "state": "VT", "type": "Federal", "pop": 9.1}}, {"type": "Feature", "geometry": {"type": "Point", "coordinates": [-117.293781, 34.527953]}, "properties": {"name": "Victor Valley Global Med Center", "city": "Victorville", "state": "CA", "type": "Medical", "pop": 4.8}}, {"type": "Feature", "geometry": {"type": "Point", "coordinates": [-93.749198, 32.513789]}, "properties": {"name": "Shreveport Hold Room", "city": "Shreveport", "state": "LA", "type": "Hold/Staging", "pop": 1.6}}, {"type": "Feature", "geometry": {"type": "Point", "coordinates": [-112.026183, 33.457023]}, "properties": {"name": "Valleywise Health Med Ctr", "city": "Phoenix", "state": "AZ", "type": "Medical", "pop": 0.5}}, {"type": "Feature", "geometry": {"type": "Point", "coordinates": [-84.376921, 30.196089]}, "properties": {"name": "Wakulla County Jail", "city": "Crawfordville", "state": "FL", "type": "Non-Dedicated", "pop": 0.1}}, {"type": "Feature", "geometry": {"type": "Point", "coordinates": [-101.287401, 48.232976]}, "properties": {"name": "Ward County Jail", "city": "Minot", "state": "ND", "type": "Federal", "pop": 0.5}}, {"type": "Feature", "geometry": {"type": "Point", "coordinates": [-113.412336, 37.158273]}, "properties": {"name": "Washington County Jail", "city": "Hurricane", "state": "UT", "type": "Federal", "pop": 12.2}}, {"type": "Feature", "geometry": {"type": "Point", "coordinates": [-94.177109, 36.033504]}, "properties": {"name": "Washington County Jail", "city": "Fayetteville", "state": "AR", "type": "Federal", "pop": 11.6}}, {"type": "Feature", "geometry": {"type": "Point", "coordinates": [-77.22918, 38.880719]}, "properties": {"name": "Washington Field Office", "city": "Fairfax", "state": "VA", "type": "Hold/Staging", "pop": 44.9}}, {"type": "Feature", "geometry": {"type": "Point", "coordinates": [-119.810632, 39.572885]}, "properties": {"name": "Washoe County Jail", "city": "Reno", "state": "NV", "type": "Federal", "pop": 47.3}}, {"type": "Feature", "geometry": {"type": "Point", "coordinates": [-88.230541, 43.024521]}, "properties": {"name": "Waukesha County Jail", "city": "Waukesha", "state": "WI", "type": "Federal", "pop": 7.7}}, {"type": "Feature", "geometry": {"type": "Point", "coordinates": [-80.151971, 26.274772]}, "properties": {"name": "Broward Transitional Center", "city": "Pompano Beach", "state": "FL", "type": "Dedicated", "pop": 679.3}}, {"type": "Feature", "geometry": {"type": "Point", "coordinates": [-97.133522, 31.553515]}, "properties": {"name": "Waco DRO Hold Room", "city": "Waco", "state": "TX", "type": "Hold/Staging", "pop": 3.5}}, {"type": "Feature", "geometry": {"type": "Point", "coordinates": [-99.489808, 27.370089]}, "properties": {"name": "Webb County Detention Center (CCA)", "city": "Laredo", "state": "TX", "type": "Dedicated", "pop": 466.6}}, {"type": "Feature", "geometry": {"type": "Point", "coordinates": [-111.993298, 41.24009]}, "properties": {"name": "Weber County Jail", "city": "Ogden", "state": "UT", "type": "Federal", "pop": 6.1}}, {"type": "Feature", "geometry": {"type": "Point", "coordinates": [-117.991922, 33.75919]}, "properties": {"name": "Westminster Custody", "city": "Westminster", "state": "CA", "type": "Hold/Staging", "pop": 6.0}}, {"type": "Feature", "geometry": {"type": "Point", "coordinates": [-80.45547, 25.678453]}, "properties": {"name": "West Kendall Baptist Hosp", "city": "Miami", "state": "FL", "type": "Medical", "pop": 0.1}}, {"type": "Feature", "geometry": {"type": "Point", "coordinates": [-86.104445, 30.783]}, "properties": {"name": "Walton County Jail", "city": "Defuniak Springs", "state": "FL", "type": "Federal", "pop": 26.8}}, {"type": "Feature", "geometry": {"type": "Point", "coordinates": [-80.42234, 25.640998]}, "properties": {"name": "West Miami Dade Bapt Health Emerg", "city": "Miami", "state": "FL", "type": "Medical", "pop": 0.1}}, {"type": "Feature", "geometry": {"type": "Point", "coordinates": [-118.217121, 34.051291]}, "properties": {"name": "White Memorial Hospital", "city": "Los Angeles", "state": "CA", "type": "Medical", "pop": 2.7}}, {"type": "Feature", "geometry": {"type": "Point", "coordinates": [-120.559359, 46.618334]}, "properties": {"name": "Wenatchee Hold Room", "city": "Yakima", "state": "WA", "type": "Hold/Staging", "pop": 0.1}}, {"type": "Feature", "geometry": {"type": "Point", "coordinates": [-96.406054, 42.497661]}, "properties": {"name": "Woodbury County Jail", "city": "Sioux City", "state": "IA", "type": "Non-Dedicated", "pop": 53.5}}, {"type": "Feature", "geometry": {"type": "Point", "coordinates": [-84.757752, 38.048299]}, "properties": {"name": "Woodford County Sheriff/Jail", "city": "Versailles", "state": "KY", "type": "Non-Dedicated", "pop": 0.4}}, {"type": "Feature", "geometry": {"type": "Point", "coordinates": [-77.071806, 41.223906]}, "properties": {"name": "Williamsport Hold Room", "city": "Williamsport", "state": "PA", "type": "Hold/Staging", "pop": 0.3}}, {"type": "Feature", "geometry": {"type": "Point", "coordinates": [-77.96108, 39.437643]}, "properties": {"name": "Eastern Regional Jail", "city": "Martinsburg", "state": "WV", "type": "Federal", "pop": 8.9}}, {"type": "Feature", "geometry": {"type": "Point", "coordinates": [-80.176043, 37.246145]}, "properties": {"name": "Western Virginia Regional Jail", "city": "Salem", "state": "VA", "type": "Federal", "pop": 4.4}}, {"type": "Feature", "geometry": {"type": "Point", "coordinates": [-80.736359, 39.92285]}, "properties": {"name": "Northern Regional Jail", "city": "Moundsville", "state": "WV", "type": "Federal", "pop": 22.2}}, {"type": "Feature", "geometry": {"type": "Point", "coordinates": [-81.710402, 38.312102]}, "properties": {"name": "South Central Regional Jail", "city": "Charleston", "state": "WV", "type": "Federal", "pop": 16.4}}, {"type": "Feature", "geometry": {"type": "Point", "coordinates": [-70.87424, 43.213232]}, "properties": {"name": "Wentworth Douglas Hospital", "city": "Dover", "state": "NH", "type": "Medical", "pop": 1.3}}, {"type": "Feature", "geometry": {"type": "Point", "coordinates": [-71.3832, 41.892811]}, "properties": {"name": "Wyatt Detention Center", "city": "Central Falls", "state": "RI", "type": "Federal", "pop": 113.2}}, {"type": "Feature", "geometry": {"type": "Point", "coordinates": [-120.557991, 46.618034]}, "properties": {"name": "Yakima Sub-Office", "city": "Yakima", "state": "WA", "type": "Hold/Staging", "pop": 2.9}}, {"type": "Feature", "geometry": {"type": "Point", "coordinates": [-76.663603, 39.987597]}, "properties": {"name": "York County Jail, PA", "city": "York", "state": "PA", "type": "Non-Dedicated", "pop": 0.7}}, {"type": "Feature", "geometry": {"type": "Point", "coordinates": [-76.758593, 39.985618]}, "properties": {"name": "York Hold Room", "city": "York", "state": "PA", "type": "Hold/Staging", "pop": 4.9}}, {"type": "Feature", "geometry": {"type": "Point", "coordinates": [-114.612181, 32.655799]}, "properties": {"name": "Yuma Holdroom", "city": "Yuma", "state": "AZ", "type": "Hold/Staging", "pop": 1.1}}]}